Timestamp,SessionTime,Lap,LapDistPct,Speed_ms,Speed_kmh,Throttle,Brake,Clutch,Gear,RPM,SteeringWheelAngle,Position,ClassPosition,LapCurrentLapTime,LastLapTime,BestLapTime,Gap_Ahead_s,Gap_Behind_s,Incidents,FuelLevel,FuelUsePerHour,LatAccel,LonAccel,YawNorth,Pitch,Roll,VelocityX,VelocityY,VelocityZ,OilTemp,OilPress,WaterTemp,Voltage,SessionFlags,OnPitRoad,PlayerCarInPitStall,LapDeltaToBestLap,LapDeltaToBestLap_OK
0.0,218.64999961859647,0,0.64319,1.81,6.5,0.0,0.0,0,1,1300.0,0.0493,,0,0.0,,,,,3,31.321,0.688,0.187,0,4.8077,0.0355,0.0222,1.806,0.003,0.014,79.3921890258789,3.3749983310699463,82.01127624511719,13.40000057220459,268698112,False,False,6.845241069793701,True
0.1,218.74999961859655,0,0.64324,1.82,6.5,0.0,0.0,0,1,1300.0,0.0484,,0,0.0,,,,,3,31.321,0.688,0.243,0,4.8076,0.0353,0.0224,1.818,0.001,0.019,79.39278411865234,3.3749990463256836,82.00880432128906,13.40000057220459,268698112,False,False,6.942251205444336,True
0.2,218.84999961859663,0,0.64329,1.83,6.6,0.0,0.0,0,1,1300.0,0.0462,,0,0.0,,,,,3,31.321,0.688,0.237,0,4.8075,0.0352,0.0224,1.831,0.003,0.016,79.39337921142578,3.3749990463256836,82.00630187988281,13.40000057220459,268698112,False,False,7.03924560546875,True
0.3,218.9499996185967,0,0.64333,1.84,6.6,0.0,0.0,0,1,1300.0,0.0524,,0,0.0,,,,,3,31.321,0.688,0.222,0,4.8073,0.035,0.0224,1.844,0.002,0.015,79.39397430419922,3.3749992847442627,82.0037841796875,13.40000057220459,268698112,False,False,7.136216163635254,True
0.41,219.0499996185968,0,0.64338,1.86,6.7,0.0,0.0,0,1,1300.0,0.0493,,0,0.0,,,,,3,31.321,0.688,0.229,0,4.8071,0.0348,0.0225,1.857,0.002,0.016,79.39456939697266,3.3749992847442627,82.00126647949219,13.40000057220459,268698112,False,False,7.233166694641113,True
0.51,219.14999961859687,0,0.64343,1.87,6.7,0.0,0.0,0,1,1300.0,0.0474,,0,0.0,,,,,3,31.321,0.688,0.231,0,4.807,0.0347,0.0225,1.87,0.002,0.015,79.3951416015625,3.3749992847442627,81.99874877929688,13.40000057220459,268698112,False,False,7.330092906951904,True
0.61,219.24999961859695,0,0.64347,1.88,6.8,0.0,0.0,0,1,1300.0,0.0462,,0,0.0,,,,,3,31.321,0.688,0.228,0,4.8069,0.0346,0.0225,1.883,0.002,0.015,79.39569091796875,3.3749992847442627,81.99622344970703,13.40000057220459,268698112,False,False,7.427000045776367,True
0.71,219.34999961859702,0,0.64352,1.9,6.8,0.0,0.0,0,1,1300.0,0.0443,,0,0.0,,,,,3,31.321,0.688,0.224,0,4.8067,0.0345,0.0225,1.897,0.002,0.014,79.396240234375,3.3749992847442627,81.99365997314453,13.40000057220459,268698112,False,False,7.523886680603027,True
0.81,219.4499996185971,0,0.64357,1.91,6.9,0.0,0.0,0,1,1300.0,0.045,,0,0.0,,,,,3,31.321,0.688,0.241,0,4.8066,0.0344,0.0226,1.909,0.002,0.016,79.39678955078125,3.3749992847442627,81.99109649658203,13.40000057220459,268698112,False,False,7.620749473571777,True
0.91,219.54999961859718,0,0.64362,1.92,6.9,0.0,0.0,0,1,1300.0,0.0426,,0,0.0,,,,,3,31.321,0.688,0.221,0,4.8064,0.0343,0.0226,1.922,0.002,0.015,79.3973388671875,3.3749992847442627,81.98853302001953,13.40000057220459,268698112,False,False,7.717592239379883,True
1.01,219.64999961859726,0,0.64367,1.94,7.0,0.0,0.0,0,1,1300.0,0.0412,,0,0.0,,,,,3,31.321,0.688,0.246,0,4.8063,0.0341,0.0226,1.935,0.001,0.014,79.39788818359375,3.3749992847442627,81.98596954345703,13.40000057220459,268698112,False,False,7.814414978027344,True
1.11,219.74999961859734,0,0.64372,1.95,7.0,0.0,0.0,0,1,1300.0,0.0414,,0,0.0,,,,,3,31.321,0.688,0.22,0,4.8061,0.0339,0.0228,1.949,0.001,0.014,79.3984375,3.3749992847442627,81.98338317871094,13.40000057220459,268698112,False,False,7.911214351654053,True
1.21,219.84999961859742,0,0.64377,1.96,7.1,0.0,0.0,0,1,1300.0,0.0405,,0,0.0,,,,,3,31.321,0.688,0.235,0,4.806,0.0337,0.023,1.961,0.001,0.016,79.39896392822266,3.3749992847442627,81.98077392578125,13.40000057220459,268698112,False,False,8.0079927444458,True
1.31,219.9499996185975,0,0.64382,1.97,7.1,0.0,0.0,0,1,1300.0,0.0419,,0,0.0,,,,,3,31.321,0.688,0.243,0,4.8058,0.0338,0.0232,1.973,0.001,0.016,79.39946746826172,3.3749992847442627,81.97816467285156,13.40000057220459,268698112,False,False,8.104752540588379,True
1.41,220.04999961859758,0,0.64387,1.98,7.1,0.0,0.0,0,1,1300.0,0.0419,,0,0.0,,,,,3,31.321,0.688,0.252,0,4.8057,0.0338,0.0232,1.985,0.002,0.016,79.39997100830078,3.3749992847442627,81.97555541992188,13.40000057220459,268698112,False,False,8.201491355895996,True
1.51,220.14999961859766,0,0.64392,2.0,7.2,0.0,0.0,0,1,1300.0,0.0421,,0,0.0,,,,,3,31.321,0.688,0.213,0,4.8055,0.0339,0.0231,1.996,0.002,0.017,79.40047454833984,3.3749992847442627,81.97294616699219,13.40000057220459,268698112,False,False,8.29821491241455,True
1.61,220.24999961859774,0,0.64397,2.01,7.2,0.0,0.0,0,1,1300.0,0.0441,,0,0.0,,,,,3,31.321,0.688,0.246,0,4.8053,0.0342,0.0231,2.01,0.001,0.017,79.40106201171875,3.3749992847442627,81.96987915039062,13.40000057220459,268698112,False,False,8.411029815673828,True
1.71,220.34999961859782,0,0.64402,2.02,7.3,0.0,0.0,0,1,1300.0,0.0438,,0,0.0,,,,,3,31.321,0.688,0.243,0,4.8051,0.0343,0.0231,2.02,0.002,0.016,79.40148162841797,3.3749992847442627,81.96766662597656,13.40000057220459,268698112,False,False,8.491597175598145,True
1.82,220.46666628526458,0,0.64408,2.03,7.3,0.0,0.0,0,1,1300.0,0.0429,,0,0.0,,,,,3,31.321,0.688,0.238,0,4.805,0.0344,0.023,2.034,0.002,0.017,79.40206909179688,3.3749992847442627,81.96456909179688,13.40000057220459,268698112,False,False,8.604369163513184,True
1.92,220.56666628526466,0,0.64413,2.05,7.4,0.0,0.0,0,1,1300.0,0.0443,,0,0.0,,,,,3,31.321,0.688,0.241,0,4.8048,0.0345,0.0229,2.046,0.002,0.017,79.40257263183594,3.3749992847442627,81.9619140625,13.40000057220459,268698112,False,False,8.701008796691895,True
2.02,220.66666628526474,0,0.64418,2.06,7.4,0.0,0.0,0,1,1300.0,0.0462,,0,0.0,,,,,3,31.321,0.688,0.235,0,4.8046,0.0346,0.0228,2.059,0.002,0.017,79.40304565429688,3.3749992847442627,81.95925903320312,13.40000057220459,268698112,False,False,8.797628402709961,True
2.12,220.76666628526482,0,0.64424,2.13,7.7,0.308,0.0,1.0,1,1547.0,0.0469,,0,0.0,,,,,3,31.32,7.019,0.216,0,4.8044,0.0345,0.0227,2.132,0.002,0.023,79.40360260009766,3.3749992847442627,81.96023559570312,13.40000057220459,268698112,False,False,8.894225120544434,True
2.22,220.8666662852649,0,0.6443,2.76,9.9,0.859,0.0,0.615,1,1356.0,0.0431,,0,0.0,,,,,3,31.32,8.879,0.211,0,4.8042,0.033,0.0222,2.764,0.003,0.011,79.40392303466797,3.3749992847442627,81.97046661376953,13.40000057220459,268698112,False,False,8.990174293518066,True
2.32,220.96666628526498,0,0.64438,3.42,12.3,1.0,0.0,0.616,1,1304.0,0.0414,,0,0.0,,,,,3,31.32,8.575,0.266,0,4.804,0.033,0.0219,3.418,0.003,0.025,79.40394592285156,3.3749992847442627,81.98066711425781,13.40000057220459,268698112,False,False,9.085079193115234,True
2.42,221.06666628526506,0,0.64447,4.06,14.6,1.0,0.0,0.616,1,1247.0,0.0352,,0,0.0,,,,,3,31.319,8.235,0.177,0,4.8037,0.0331,0.0217,4.064,0.003,0.033,79.40373229980469,3.3732969760894775,81.99007415771484,13.40000057220459,268698112,False,False,9.17892074584961,True
2.52,221.16666628526514,0,0.64458,4.65,16.7,1.0,0.0,0.961,1,1330.0,0.0275,,0,0.0,,,,,3,31.319,8.799,0.285,0,4.8033,0.0333,0.0215,4.652,0.002,0.033,79.4032974243164,3.36533522605896,81.99880981445312,13.40000057220459,268698112,False,False,9.271710395812988,True
2.62,221.26666628526522,0,0.64471,5.27,19.0,1.0,0.0,1.0,1,1685.0,0.0141,,0,0.0,,,,,3,31.319,11.92,0.025,0,4.803,0.0325,0.0218,5.27,0.004,0.025,79.4026870727539,3.3655035495758057,82.00989532470703,13.40000057220459,268698112,False,False,9.363525390625,True
2.72,221.3666662852653,0,0.64485,5.95,21.4,1.0,0.0,1.0,1,1488.0,-0.0702,,0,0.0,,,,,3,31.318,10.536,-0.088,0,4.8032,0.0317,0.0214,5.95,-0.011,0.019,79.40189361572266,3.351468324661255,82.02091217041016,13.40000057220459,268698112,False,False,9.454245567321777,True
2.82,221.46666628526538,0,0.64501,6.73,24.2,1.0,0.0,1.0,1,1149.0,-0.1262,,0,0.0,,,,,3,31.318,8.257,-0.001,0,4.8042,0.0308,0.021,6.73,-0.024,0.03,79.40087890625,3.359171152114868,82.03416442871094,13.40000057220459,268698112,False,False,9.543895721435547,True
2.93,221.56666628526546,0,0.64519,7.37,26.5,1.0,0.0,1.0,1,1726.0,-0.1252,,0,0.0,,,,,3,31.317,12.957,0.241,0,4.8058,0.0313,0.0212,7.373,-0.031,0.062,79.39958190917969,3.369030237197876,82.05020141601562,13.40000057220459,268698112,False,False,9.632439613342285,True
3.03,221.66666628526553,0,0.64538,8.02,28.9,1.0,0.0,1.0,1,2471.0,-0.114,,0,0.0,,,,,3,31.317,19.264,0.147,0,4.8073,0.032,0.0219,8.016,-0.035,0.07,79.3980484008789,3.372748613357544,82.06659698486328,13.40000057220459,268698112,False,False,9.719746589660645,True
3.13,221.76666628526561,0,0.6456,8.81,31.7,1.0,0.0,1.0,1,2455.0,-0.1178,,0,0.0,,,,,3,31.316,19.64,-0.087,0,4.809,0.0317,0.0221,8.814,-0.035,0.045,79.39615631103516,3.3741507530212402,82.08414459228516,13.40000057220459,268698112,False,False,9.805804252624512,True
3.23,221.8666662852657,0,0.64583,9.69,34.9,1.0,0.0,1.0,1,2194.0,-0.1137,,0,0.0,,,,,3,31.316,18.059,-0.097,0,4.811,0.0305,0.0232,9.693,-0.039,0.037,79.39398956298828,3.3746795654296875,82.1054916381836,13.40000057220459,268698112,False,False,9.890613555908203,True
3.33,221.96666628526577,0,0.64609,10.52,37.9,1.0,0.0,1.0,1,2458.0,-0.1147,,0,0.0,,,,,3,31.315,21.049,0.102,0,4.8132,0.0302,0.0234,10.524,-0.035,0.085,79.39153289794922,3.3748791217803955,82.13085174560547,13.40000057220459,268698112,False,False,9.974101066589355,True
3.43,222.08333295193253,0,0.64641,11.49,41.4,1.0,0.0,1.0,1,2980.0,-0.1099,,0,0.0,,,,,3,31.314,26.026,-0.199,0,4.816,0.0291,0.0228,11.487,-0.037,0.064,79.38835906982422,3.3749616146087646,82.16434478759766,13.40000057220459,268698112,False,False,10.069727897644043,True
3.53,222.1833329519326,0,0.64672,12.39,44.6,1.0,0.0,1.0,1,3260.0,-0.1058,,0,0.0,,,,,3,31.313,28.933,-0.101,0,4.8188,0.028,0.0227,12.393,-0.041,0.047,79.38536834716797,3.374985694885254,82.19684600830078,13.40000057220459,268698112,False,False,10.150125503540039,True
3.63,222.2833329519327,0,0.64704,13.33,48.0,1.0,0.0,1.0,1,3456.0,-0.0994,,0,0.0,,,,,3,31.312,31.124,-0.224,0,4.8221,0.0283,0.0219,13.331,-0.036,0.09,79.38219451904297,3.3749947547912598,82.23280334472656,13.40000057220459,268698112,False,False,10.229023933410645,True
3.73,222.38333295193277,0,0.64739,14.28,51.4,1.0,0.0,1.0,1,3712.0,-0.085,,0,0.0,,,,,3,31.31,33.514,-0.101,0,4.8251,0.0288,0.0219,14.275,-0.033,0.071,79.37897491455078,3.491452217102051,82.2724609375,13.40000057220459,268698112,False,False,10.306403160095215,True
3.83,222.48333295193285,0,0.64777,15.24,54.8,1.0,0.0,1.0,1,3954.0,-0.069,,0,0.0,,,,,3,31.309,35.555,-0.126,0,4.8276,0.0293,0.0232,15.236,-0.033,0.118,79.37571716308594,3.750850200653076,82.31495666503906,13.40000057220459,268698112,False,False,10.382230758666992,True
3.94,222.58333295193293,0,0.64816,16.19,58.3,1.0,0.0,1.0,1,4212.0,-0.0548,,0,0.0,,,,,3,31.308,37.504,0.057,0,4.8291,0.0278,0.0231,16.192,-0.026,0.068,79.37245178222656,4.044886112213135,82.35968780517578,13.40000057220459,268698112,False,False,10.456486701965332,True
4.04,222.683332951933,0,0.64859,17.18,61.8,1.0,0.0,1.0,1,4333.0,-0.0419,,0,0.0,,,,,3,31.306,38.496,0.071,0,4.8305,0.0284,0.0238,17.178,-0.028,0.096,79.36975860595703,4.328354358673096,82.4072036743164,13.40000057220459,268698112,False,False,10.52919864654541,True
4.14,222.7833329519331,0,0.64903,18.1,65.2,1.0,0.0,1.0,1,4749.0,-0.0273,,0,0.0,,,,,3,31.305,41.223,0.092,0,4.8317,0.0295,0.0242,18.103,-0.02,0.112,79.36840057373047,4.4352641105651855,82.4567642211914,13.40000057220459,268698112,False,False,10.600342750549316,True
4.24,222.88333295193317,0,0.6495,19.08,68.7,1.0,0.0,1.0,1,4928.0,-0.0237,,0,0.0,,,,,3,31.303,42.389,0.079,0,4.8325,0.0293,0.0241,19.076,-0.019,0.086,79.3687744140625,4.475584983825684,82.50865173339844,13.40000057220459,268698112,False,False,10.669947624206543,True
4.34,222.98333295193325,0,0.65,20.03,72.1,1.0,0.0,1.0,1,5161.0,-0.017,,0,0.0,,,,,3,31.302,43.693,0.172,0,4.8332,0.0296,0.0248,20.031,-0.017,0.107,79.37068176269531,4.4907917976379395,82.56214141845703,13.40000057220459,268698112,False,False,10.738003730773926,True
4.44,223.08333295193333,0,0.65052,20.97,75.5,1.0,0.0,1.0,1,5413.0,-0.0093,,0,0.0,,,,,3,31.3,45.054,0.21,0,4.8334,0.0297,0.0254,20.974,-0.018,0.11,79.37458801269531,4.496527194976807,82.61739349365234,13.40000057220459,268698112,False,False,10.804529190063477,True
4.54,223.1833329519334,0,0.65106,21.92,78.9,1.0,0.0,1.0,1,5634.0,-0.0215,,0,0.0,,,,,3,31.298,46.354,0.155,0,4.8336,0.0294,0.026,21.918,-0.021,0.111,79.38058471679688,4.498690128326416,82.67450714111328,13.40000057220459,268698112,False,False,10.869544982910156,True
4.64,223.2833329519335,0,0.65163,22.86,82.3,1.0,0.0,1.0,1,5865.0,-0.0196,,0,0.0,,,,,3,31.297,47.612,0.117,0,4.8343,0.0287,0.0265,22.856,-0.02,0.108,79.38874053955078,4.499505996704102,82.73351287841797,13.40000057220459,268698112,False,False,10.933050155639648,True
4.74,223.38333295193357,0,0.65222,23.79,85.6,1.0,0.0,1.0,1,6095.0,-0.0122,,0,0.0,,,,,3,31.295,48.665,0.145,0,4.8349,0.0291,0.0268,23.786,-0.017,0.125,79.39934539794922,4.499813556671143,82.79421997070312,13.40000057220459,268698112,False,False,10.995062828063965,True
4.84,223.48333295193365,0,0.65283,24.71,88.9,1.0,0.0,1.0,1,6330.0,-0.0108,,0,0.0,,,,,3,31.293,49.838,0.25,0,4.8352,0.0296,0.0273,24.708,-0.019,0.115,79.4127197265625,4.499929904937744,82.85667419433594,13.40000057220459,268698112,False,False,11.055596351623535,True
4.94,223.58333295193373,0,0.65347,25.62,92.2,1.0,0.0,1.0,1,6550.0,0.0019,,0,0.0,,,,,3,31.291,50.247,0.196,0,4.8358,0.0299,0.027,25.622,-0.014,0.149,79.4288330078125,4.499973773956299,82.9201431274414,13.40000057220459,268698112,False,False,11.114663124084473,True
5.04,223.6833329519338,0,0.65413,26.52,95.5,1.0,0.0,1.0,1,6728.0,0.0096,,0,0.0,,,,,3,31.289,49.82,0.573,0,4.8356,0.0275,0.0284,26.519,-0.014,0.107,79.4474868774414,4.499989986419678,82.98248291015625,13.40000057220459,268698112,False,False,11.172298431396484,True
5.15,223.7833329519339,0,0.65481,27.36,98.5,1.0,0.0,1.0,1,6937.0,0.0065,,0,0.0,,,,,3,31.287,48.928,0.556,0,4.8345,0.0279,0.0298,27.364,-0.023,0.153,79.46868133544922,4.499996185302734,83.04240417480469,13.40000057220459,268698112,False,False,11.228543281555176,True
5.25,223.89999961860065,0,0.65564,28.29,101.9,1.0,0.0,1.0,1,6589.0,0.006,,0,0.0,,,,,3,31.285,49.762,0.613,0,4.8336,0.0278,0.0305,28.292,-0.021,0.138,79.49576568603516,4.499998569488525,83.08806610107422,13.40000057220459,268698112,False,False,11.292525291442871,True
5.35,223.98333295193405,0,0.65623,28.42,102.3,1.0,0.0,1.0,2,6332.0,0.0017,,0,0.0,,,,,3,31.284,49.562,0.293,0,4.8334,0.0284,0.0306,28.418,-0.019,0.209,79.50252532958984,4.499998569488525,83.08216094970703,13.40000057220459,268698112,False,False,11.337552070617676,True
5.45,224.0999996186008,0,0.65709,29.34,105.6,1.0,0.0,1.0,2,5852.0,0.0141,,0,0.0,,,,,3,31.282,48.798,0.551,0,4.8331,0.026,0.0311,29.339,-0.014,0.144,79.50788116455078,4.499998569488525,83.14655303955078,13.40000057220459,268698112,False,False,11.399569511413574,True
5.55,224.19999961860088,0,0.65784,30.06,108.2,1.0,0.0,1.0,2,5912.0,0.0283,,0,0.0,,,,,3,31.28,48.909,0.786,0,4.8322,0.0251,0.0315,30.064,-0.014,0.155,79.5134048461914,4.499998569488525,83.20177459716797,13.40000057220459,268698112,False,False,11.451491355895996,True
5.65,224.29999961860096,0,0.65861,30.77,110.8,1.0,0.0,1.0,2,6013.0,0.0335,,0,0.0,,,,,3,31.278,49.153,0.763,0,4.8309,0.0232,0.0312,30.773,-0.012,0.139,79.52027893066406,4.499998569488525,83.257080078125,13.40000057220459,268698112,False,False,11.50230884552002,True
5.75,224.39999961860104,0,0.6594,31.46,113.3,1.0,0.0,1.0,2,6143.0,0.0342,,0,0.0,,,,,3,31.276,49.371,0.851,0,4.8292,0.0218,0.0304,31.464,-0.012,0.156,79.528564453125,4.499998569488525,83.31221008300781,13.40000057220459,268698112,False,False,11.552038192749023,True
5.85,224.49999961860112,0,0.66021,32.15,115.7,1.0,0.0,1.0,2,6269.0,0.034,,0,0.0,,,,,3,31.274,49.933,0.811,0,4.8277,0.0204,0.0297,32.145,-0.01,0.155,79.538330078125,4.499998569488525,83.36759185791016,13.40000057220459,268698112,False,False,11.600708961486816,True
5.95,224.5999996186012,0,0.66103,32.82,118.1,1.0,0.0,1.0,2,6397.0,0.0273,,0,0.0,,,,,3,31.273,50.328,0.751,0,4.8263,0.0187,0.0291,32.818,-0.012,0.154,79.54961395263672,4.499998569488525,83.4234390258789,13.40000057220459,268698112,False,False,11.648335456848145,True
6.05,224.69999961860128,0,0.66187,33.48,120.5,1.0,0.0,1.0,2,6523.0,0.0242,,0,0.0,,,,,3,31.271,50.402,0.663,0,4.8251,0.0176,0.0284,33.478,-0.012,0.164,79.56241607666016,4.499998569488525,83.47903442382812,13.40000057220459,268698112,False,False,11.694937705993652,True
6.15,224.79999961860136,0,0.66273,34.12,122.8,1.0,0.0,1.0,2,6639.0,0.0187,,0,0.0,,,,,3,31.269,50.191,0.586,0,4.8242,0.0152,0.0266,34.124,-0.009,0.151,79.5768051147461,4.499998569488525,83.53374481201172,13.40000057220459,268698112,False,False,11.740545272827148,True
6.26,224.89999961860144,0,0.6636,34.75,125.1,1.0,0.0,1.0,2,6754.0,0.0192,,0,0.0,,,,,3,31.267,49.811,0.396,0,4.8238,0.0135,0.0249,34.747,-0.004,0.171,79.59264373779297,4.499998569488525,83.5870132446289,13.40000057220459,268698112,False,False,11.785178184509277,True
6.36,224.99999961860152,0,0.66449,35.35,127.3,1.0,0.0,1.0,2,6867.0,0.0201,,0,0.0,,,,,3,31.265,49.28,0.546,0,4.8232,0.0126,0.0232,35.348,-0.004,0.171,79.61009979248047,4.499998569488525,83.63845825195312,13.40000057220459,268698112,False,False,11.82888412475586,True
6.46,225.0999996186016,0,0.66539,35.93,129.3,1.0,0.0,1.0,2,6978.0,0.0148,,0,0.0,,,,,3,31.263,48.647,0.336,0,4.8225,0.0115,0.0236,35.927,-0.01,0.165,79.62916564941406,4.499998569488525,83.68773651123047,13.40000057220459,268698112,False,False,11.871688842773438,True
6.56,225.19999961860168,0,0.66631,36.48,131.3,1.0,0.0,1.0,2,7082.0,0.0084,,0,0.0,,,,,3,31.262,48.031,0.4,0,4.8217,0.0104,0.0237,36.483,-0.016,0.18,79.64973449707031,4.499998569488525,83.7348403930664,13.40000057220459,268698112,False,False,11.913627624511719,True
6.66,225.29999961860176,0,0.66724,36.65,131.9,1.0,0.0,1.0,3,6193.0,0.0089,,0,0.0,,,,,3,31.26,49.647,0.418,0,4.8214,0.0093,0.0256,36.647,-0.014,0.236,79.65730285644531,4.499998569488525,83.7157211303711,13.40000057220459,268698112,False,False,11.955033302307129,True
6.76,225.39999961860184,0,0.66817,37.2,133.9,1.0,0.0,1.0,3,5880.0,-0.006,,0,0.0,,,,,3,31.258,48.946,0.504,0,4.8207,0.0089,0.0272,37.201,-0.025,0.194,79.6600570678711,4.499998569488525,83.76469421386719,13.40000057220459,268698112,False,False,11.995881080627441,True
6.86,225.49999961860192,0,0.66912,37.72,135.8,1.0,0.0,1.0,3,5926.0,-0.0002,,0,0.0,,,,,3,31.256,49.02,0.323,0,4.8204,0.0086,0.03,37.716,-0.026,0.184,79.66364288330078,4.499998569488525,83.8135757446289,13.40000057220459,268698112,False,False,12.035947799682617,True
6.96,225.599999618602,0,0.67009,38.22,137.6,1.0,0.0,1.0,3,6017.0,0.0091,,0,0.0,,,,,3,31.254,49.225,0.524,0,4.8203,0.0063,0.0303,38.219,-0.017,0.163,79.66803741455078,4.499998569488525,83.86225891113281,13.40000057220459,268698112,False,False,12.075258255004883,True
7.06,225.69999961860208,0,0.67106,38.71,139.4,1.0,0.0,1.0,3,6101.0,0.0177,,0,0.0,,,,,3,31.252,49.329,0.456,0,4.8199,0.0056,0.0286,38.711,-0.011,0.179,79.67327117919922,4.499998569488525,83.91057586669922,13.40000057220459,268698112,False,False,12.113829612731934,True
7.16,225.79999961860216,0,0.67205,39.2,141.1,1.0,0.0,1.0,3,6181.0,0.0196,,0,0.0,,,,,3,31.251,49.606,0.56,0,4.8191,0.0064,0.0292,39.196,-0.015,0.184,79.67935180664062,4.499998569488525,83.95873260498047,13.40000057220459,268698112,False,False,12.151674270629883,True
7.26,225.91666628526892,0,0.67305,39.68,142.8,1.0,0.0,1.0,3,6261.0,0.0062,,0,0.0,,,,,3,31.248,50.092,0.518,0,4.8179,0.0075,0.0302,39.76,-0.026,0.185,79.68758392333984,4.499998569488525,84.01533508300781,13.40000057220459,268698112,False,False,12.194916725158691,True
7.36,225.99999961860232,0,0.67406,40.16,144.6,1.0,0.0,1.0,3,6328.0,0.0156,,0,0.0,,,,,3,31.247,50.317,0.551,0,4.8175,0.0083,0.0306,40.239,-0.016,0.191,79.69552612304688,4.499998569488525,84.06407165527344,13.40000057220459,268698112,False,False,12.231206893920898,True
7.47,226.11666628526908,0,0.67525,40.71,146.6,1.0,0.0,1.0,3,6415.0,0.0287,,0,0.0,,,,,3,31.245,50.434,0.83,0,4.8165,0.0089,0.0302,40.712,-0.017,0.194,79.70439147949219,4.499998569488525,84.11260986328125,13.40000057220459,268698112,False,False,12.266786575317383,True
7.57,226.21666628526916,0,0.67629,41.18,148.2,1.0,0.0,1.0,3,6490.0,0.0215,,0,0.0,,,,,3,31.243,50.457,0.695,0,4.815,0.0093,0.0302,41.178,-0.024,0.193,79.71412658691406,4.499998569488525,84.16072845458984,13.40000057220459,268698112,False,False,12.30168342590332,True
7.67,226.31666628526924,0,0.67734,41.63,149.9,1.0,0.0,1.0,3,6563.0,0.0211,,0,0.0,,,,,3,31.241,50.393,0.615,0,4.8141,0.0105,0.0305,41.634,-0.023,0.202,79.72478485107422,4.499998569488525,84.208251953125,13.40000057220459,268698112,False,False,12.335894584655762,True
7.77,226.41666628526932,0,0.6784,42.08,151.5,1.0,0.0,1.0,3,6634.0,0.0163,,0,0.0,,,,,3,31.239,50.223,0.652,0,4.813,0.0128,0.03,42.082,-0.024,0.207,79.7363510131836,4.499998569488525,84.25492858886719,13.40000057220459,268698112,False,False,12.369443893432617,True
7.87,226.5166662852694,0,0.67947,42.52,153.1,1.0,0.0,1.0,3,6717.0,0.0115,,0,0.0,,,,,3,31.237,49.937,0.477,0,4.8122,0.0185,0.0312,42.519,-0.024,0.249,79.7488784790039,4.499998569488525,84.30050659179688,13.40000057220459,268698112,False,False,12.402338981628418,True
7.97,226.61666628526947,0,0.68056,42.96,154.6,1.0,0.0,1.0,3,6765.0,0.0026,,0,0.0,,,,,3,31.235,49.7,0.49,0,4.8117,0.0184,0.0324,42.958,-0.032,0.147,79.76246643066406,4.499998569488525,84.34479522705078,13.40000057220459,268698112,False,False,12.43460464477539,True
8.07,226.71666628526955,0,0.68165,43.38,156.2,1.0,0.0,1.0,3,6821.0,0.0335,,0,0.0,,,,,3,31.234,49.408,0.6,0,4.8117,0.0185,0.0301,43.383,-0.007,0.202,79.77641296386719,4.499998569488525,84.38809967041016,13.40000057220459,268698112,False,False,12.466253280639648,True
8.17,226.81666628526963,0,0.68276,43.79,157.7,1.0,0.0,1.0,3,6899.0,0.0421,,0,0.0,,,,,3,31.232,48.958,0.973,0,4.8099,0.0227,0.0268,43.792,-0.02,0.246,79.79141235351562,4.499998569488525,84.42986297607422,13.40000057220459,268698112,False,False,12.497295379638672,True
8.27,226.9166662852697,0,0.68387,44.2,159.1,1.0,0.0,1.0,3,6945.0,0.0261,,0,0.0,,,,,3,31.23,48.621,1.191,0,4.8077,0.0236,0.0256,44.201,-0.031,0.185,79.80731201171875,4.499998569488525,84.47013092041016,13.40000057220459,268698112,False,False,12.527752876281738,True
8.37,227.0166662852698,0,0.685,44.59,160.5,1.0,0.0,1.0,3,7013.0,0.0136,,0,0.0,,,,,3,31.228,48.186,1.054,0,4.8062,0.0258,0.0256,44.592,-0.03,0.21,79.8239517211914,4.499998569488525,84.50897979736328,13.40000057220459,268698112,False,False,12.557647705078125,True
8.48,227.11666628526987,0,0.68613,44.98,161.9,1.0,0.0,1.0,3,7071.0,0.018,,0,0.0,,,,,3,31.226,47.785,0.701,0,4.8052,0.0283,0.0253,44.975,-0.023,0.191,79.84156036376953,4.499998569488525,84.54624938964844,13.40000057220459,268698112,False,False,12.586999893188477,True
8.58,227.21666628526995,0,0.68728,45.35,163.3,1.0,0.0,1.0,3,7092.0,0.0172,,0,0.0,,,,,3,31.225,47.525,0.199,0,4.8038,0.0249,0.029,45.353,-0.034,0.122,79.85973358154297,4.499998569488525,84.58222961425781,13.40000057220459,268698112,False,False,12.615812301635742,True
8.68,227.31666628527003,0,0.68843,45.69,164.5,0.91,0.0,1.0,3,7157.0,-0.0108,,0,0.0,,,,,3,31.223,46.287,0.411,0,4.8031,0.0281,0.0349,45.692,-0.041,0.251,79.87858581542969,4.499998569488525,84.61299896240234,13.40000057220459,268698112,False,False,12.644123077392578,True
8.78,227.4166662852701,0,0.68959,45.73,164.6,0.0,0.027,1.0,3,6723.0,0.0024,,0,0.0,,,,,3,31.222,0.978,0.554,0,4.8034,0.0268,0.04,45.733,-0.024,0.187,79.89383697509766,4.499998569488525,84.57044219970703,13.40000057220459,268698112,False,False,12.67210578918457,True
8.88,227.5166662852702,0,0.69074,45.1,162.3,0.0,0.176,1.0,3,6896.0,0.0002,,0,0.0,,,,,3,31.222,0.989,0.077,0,4.804,0.027,0.0418,45.095,-0.007,0.318,79.91118621826172,4.499998569488525,84.48820495605469,13.40000057220459,268698112,False,False,12.700647354125977,True
8.98,227.61666628527027,0,0.69188,44.28,159.4,0.0,0.179,1.0,3,6873.0,0.0204,,0,0.0,,,,,3,31.222,0.987,0.435,0,4.8039,0.0257,0.042,44.279,-0.012,0.336,79.9265365600586,4.499998569488525,84.40835571289062,13.40000057220459,268698112,False,False,12.730173110961914,True
9.08,227.71666628527035,0,0.69299,43.5,156.6,0.0,0.169,1.0,3,6732.0,0.0184,,0,0.0,,,,,3,31.222,0.979,0.758,0,4.803,0.0224,0.0413,43.377,-0.015,0.298,79.94207000732422,4.499998569488525,84.3181381225586,13.40000057220459,268698112,False,False,12.764379501342773,True
9.18,227.8333329519371,0,0.69426,42.61,153.4,0.0,0.171,1.0,3,6589.0,0.0323,,0,0.0,,,,,3,31.222,0.969,1.045,0,4.8018,0.0196,0.0398,42.61,-0.008,0.298,79.9536361694336,4.499998569488525,84.24310302734375,13.40000057220459,268698112,False,False,12.792837142944336,True
9.28,227.9333329519372,0,0.69533,41.87,150.7,0.0,0.154,1.0,3,6475.0,0.052,,0,0.0,,,,,3,31.222,0.962,1.326,0,4.7993,0.0184,0.0382,41.868,-0.02,0.332,79.96370697021484,4.499998569488525,84.17010498046875,13.40000057220459,268698112,False,False,12.820398330688477,True
9.38,228.03333295193727,0,0.69638,41.17,148.2,0.0,0.145,1.0,3,6371.0,0.062,,0,0.0,,,,,3,31.222,0.954,1.659,0,4.7958,0.0152,0.0344,41.174,-0.025,0.289,79.97242736816406,4.499998569488525,84.09900665283203,13.40000057220459,268698112,False,False,12.847067832946777,True
9.48,228.13333295193735,0,0.69742,40.5,145.8,0.0,0.153,1.0,3,6259.0,0.084,,0,0.0,,,,,3,31.222,0.946,2.04,0,4.7915,0.0135,0.0328,40.497,-0.023,0.318,79.97990417480469,4.499998569488525,84.02971649169922,13.40000057220459,268698112,False,False,12.872822761535645,True
9.59,228.23333295193743,0,0.69843,39.8,143.3,0.0,0.149,1.0,3,6151.0,0.1147,,0,0.0,,,,,3,31.222,0.938,2.685,0,4.7854,0.0125,0.0337,39.805,-0.038,0.311,79.9861068725586,4.499998569488525,83.9622573852539,13.40000057220459,268698112,False,False,12.897781372070312,True
9.69,228.3333329519375,0,0.69943,39.15,140.9,0.0,0.129,1.0,3,6055.0,0.2145,,0,0.0,,,,,3,31.222,0.93,4.777,0,4.7761,0.0122,0.0362,39.15,-0.049,0.306,79.99117279052734,4.499998569488525,83.89655303955078,13.40000057220459,268698112,False,False,12.921975135803223,True
9.79,228.4333329519376,0,0.70042,38.55,138.8,0.0,0.111,1.0,3,5974.0,0.3045,,0,0.0,,,,,3,31.222,0.924,7.894,0,4.7591,0.0105,0.0375,38.551,-0.08,0.315,79.99530792236328,4.499998569488525,83.8323745727539,13.40000057220459,268698112,False,False,12.945566177368164,True
9.89,228.53333295193767,0,0.70139,38.02,136.9,0.0,0.077,1.0,3,5891.0,0.3618,,0,0.0,,,,,3,31.222,0.917,9.052,0,4.7366,0.0073,0.036,38.018,-0.086,0.284,79.99862670898438,4.499998569488525,83.76954650878906,13.40000057220459,268698112,False,False,12.968681335449219,True
10.0,228.64999961860443,0,0.7025,37.52,135.1,0.0,0.041,1.0,3,5817.0,0.4226,,0,0.0,,,,,3,31.222,0.911,10.864,0,4.7047,0.0056,0.0363,37.522,-0.195,0.262,80.00162506103516,4.499998569488525,83.69776153564453,13.40000057220459,268698112,False,False,12.995209693908691,True
10.1,228.7499996186045,0,0.70344,37.2,133.9,0.0,0.0,1.0,3,5775.0,0.4326,,0,0.0,,,,,3,31.222,0.907,12.776,0,4.6741,0.0016,0.0387,37.202,-0.174,0.252,80.003662109375,4.499998569488525,83.63716888427734,13.40000057220459,268698112,False,False,13.017845153808594,True
10.2,228.84999961860458,0,0.70438,36.95,133.0,0.0,0.0,1.0,3,5738.0,0.435,,0,0.0,,,,,3,31.222,0.904,11.819,0,4.6437,-0.0052,0.0368,36.95,-0.105,0.201,80.00537109375,4.499998569488525,83.57723236083984,13.40000057220459,268698112,False,False,13.040582656860352,True
10.3,228.94999961860466,0,0.7053,36.7,132.1,0.0,0.0,1.0,3,5700.0,0.5131,,0,0.0,,,,,3,31.222,0.9,11.763,0,4.6141,-0.0074,0.0334,36.701,-0.075,0.261,80.0066909790039,4.499998569488525,83.51799011230469,13.40000057220459,268698112,False,False,13.063333511352539,True
10.4,229.04999961860474,0,0.70623,36.45,131.2,0.094,0.0,1.0,3,5690.0,0.6608,,0,0.0,,,,,3,31.222,3.749,14.496,0,4.5773,-0.009,0.0305,36.453,-0.148,0.258,80.00777435302734,4.499998569488525,83.46138000488281,13.40000057220459,268698112,False,False,13.086251258850098,True
10.51,229.14999961860482,0,0.70716,36.26,130.5,0.201,0.0,1.0,3,5871.0,0.8246,,0,0.0,,,,,3,31.221,8.121,16.812,0,4.5306,-0.0091,0.0228,36.258,-0.297,0.255,80.0097885131836,4.499998569488525,83.41609191894531,13.40000057220459,268698112,False,False,13.109413146972656,True
10.61,229.2499996186049,0,0.70811,36.1,130.0,0.14,0.0,1.0,3,5654.0,0.9366,,0,0.0,,,,,3,31.221,5.681,18.675,0,4.4754,-0.0057,0.0108,36.095,-0.545,0.284,80.01007843017578,4.499998569488525,83.37254333496094,13.40000057220459,268698112,False,False,13.13305377960205,True
10.71,229.34999961860498,0,0.70906,35.86,129.1,0.074,0.0,1.0,3,5431.0,0.9397,,0,0.0,,,,,3,31.221,2.991,22.346,0,4.4087,-0.0044,0.0003,35.85,-0.96,0.236,80.00987243652344,4.499998569488525,83.32229614257812,13.40000057220459,268698112,False,False,13.157559394836426,True
10.81,229.44999961860506,0,0.71,35.55,128.0,0.064,0.0,1.0,3,5483.0,0.8873,,0,0.0,,,,,3,31.221,2.587,20.908,0,4.3409,-0.0014,-0.0072,35.529,-1.208,0.274,80.00926971435547,4.499998569488525,83.27013397216797,13.40000057220459,268698112,False,False,13.182388305664062,True
10.91,229.54999961860514,0,0.71091,35.24,126.9,0.095,0.0,1.0,3,5471.0,0.8025,,0,0.0,,,,,3,31.221,3.822,23.954,0,4.2689,-0.003,-0.0065,35.209,-1.441,0.229,80.008544921875,4.499998569488525,83.21934509277344,13.40000057220459,268698112,False,False,13.20689582824707,True
11.01,229.64999961860522,0,0.7118,34.96,125.9,0.227,0.0,1.0,3,5662.0,0.6864,,0,0.0,,,,,3,31.221,9.239,26.586,0,4.2089,-0.0002,-0.002,34.941,-1.204,0.386,80.00843811035156,4.499998569488525,83.17617797851562,13.40000057220459,268698112,False,False,13.231247901916504,True
11.11,229.7499996186053,0,0.71267,34.84,125.4,0.411,0.0,1.0,3,5501.0,0.6555,,0,0.0,,,,,3,31.22,17.513,21.111,0,4.144,-0.0158,0.0126,34.826,-1.128,0.042,80.00839233398438,4.499998569488525,83.15035247802734,13.40000057220459,268698112,False,False,13.255329132080078,True
11.21,229.84999961860538,0,0.71355,34.88,125.6,0.52,0.0,1.0,3,5512.0,0.6139,,0,0.0,,,,,3,31.219,23.423,13.025,0,4.1139,-0.01,0.0044,34.88,-0.282,0.335,80.00767517089844,4.499998569488525,83.14002990722656,13.40000057220459,268698112,False,False,13.278992652893066,True
11.31,229.94999961860546,0,0.71443,35.05,126.2,0.629,0.0,1.0,3,5527.0,0.458,,0,0.0,,,,,3,31.218,29.723,13.661,0,4.0751,-0.0133,0.0009,35.048,-0.301,0.189,80.00740814208984,4.499998569488525,83.14327239990234,13.40000057220459,268698112,False,False,13.30203628540039,True
11.41,230.04999961860554,0,0.71532,35.32,127.2,0.735,0.0,1.0,3,5582.0,0.2914,,0,0.0,,,,,3,31.217,36.01,6.922,0,4.0524,-0.0104,-0.0015,35.32,-0.106,0.261,80.00740814208984,4.499998569488525,83.16000366210938,13.40000057220459,268698112,False,False,13.324787139892578,True
11.51,230.14999961860562,0,0.71621,35.7,128.5,0.88,0.0,1.0,3,5650.0,0.2971,,0,0.0,,,,,3,31.216,42.66,6.622,0,4.0344,-0.0093,-0.002,35.704,-0.126,0.155,80.00826263427734,4.499998569488525,83.1916275024414,13.40000057220459,268698112,False,False,13.34749698638916,True
11.61,230.26666628527238,0,0.71728,36.24,130.4,0.978,0.0,1.0,3,5726.0,0.3448,,0,0.0,,,,,3,31.214,46.211,7.005,0,4.0124,-0.0034,-0.0014,36.235,-0.119,0.225,80.00993347167969,4.499998569488525,83.24073791503906,13.40000057220459,268698112,False,False,13.373498916625977,True
11.72,230.36666628527246,0,0.71821,36.71,132.2,0.982,0.0,1.0,3,5846.0,0.069,,0,0.0,,,,,3,31.212,47.43,3.993,0,3.9933,0.0061,0.0064,36.708,-0.262,0.254,80.01244354248047,4.499998569488525,83.28665161132812,13.40000057220459,268698112,False,False,13.395269393920898,True
11.82,230.46666628527254,0,0.71915,37.22,134.0,0.975,0.0,1.0,3,5908.0,-0.339,,0,0.0,,,,,3,31.21,47.983,-2.436,0,3.9905,0.0096,0.0034,37.215,-0.264,0.227,80.01615142822266,4.499998569488525,83.3338623046875,13.40000057220459,268698112,False,False,13.416566848754883,True
11.92,230.56666628527262,0,0.7201,37.72,135.8,0.96,0.0,1.0,3,5897.0,-0.5485,,0,0.0,,,,,3,31.208,47.898,-10.955,0,4.0138,-0.0032,0.0015,37.722,-0.068,0.014,80.01937103271484,4.499998569488525,83.3807144165039,13.40000057220459,268698112,False,False,13.437454223632812,True
12.02,230.6666662852727,0,0.72107,38.17,137.4,0.938,0.0,1.0,3,6006.0,-0.6757,,0,0.0,,,,,3,31.207,48.201,-11.03,0,4.0513,-0.0089,-0.0079,38.172,0.149,0.116,80.02369689941406,4.499998569488525,83.42742919921875,13.40000057220459,268698112,False,False,13.457829475402832,True
12.12,230.76666628527278,0,0.72206,38.59,138.9,0.925,0.0,1.0,3,6148.0,-0.6917,,0,0.0,,,,,3,31.205,48.507,-15.952,0,4.0917,-0.0065,-0.009,38.593,0.324,0.268,80.02906799316406,4.499998569488525,83.47401428222656,13.40000057220459,268698112,False,False,13.477715492248535,True
12.22,230.86666628527286,0,0.72305,39.02,140.5,0.91,0.0,1.0,3,6168.0,-0.7008,,0,0.0,,,,,3,31.203,48.574,-20.102,0,4.1442,-0.024,-0.0138,39.015,0.411,-0.041,80.03519439697266,4.499998569488525,83.52072143554688,13.40000057220459,268698112,False,False,13.496931076049805,True
12.32,230.96666628527294,0,0.72404,39.42,141.9,0.908,0.0,1.0,3,6251.0,-0.7168,,0,0.0,,,,,3,31.201,48.724,-10.825,0,4.1783,-0.0218,-0.0056,39.418,0.092,0.268,80.04141235351562,4.499998569488525,83.56700897216797,13.40000057220459,268698112,False,False,13.515564918518066,True
12.42,231.06666628527302,0,0.72505,39.79,143.2,0.91,0.0,1.0,3,6480.0,-0.6737,,0,0.0,,,,,3,31.199,49.137,-10.724,0,4.2243,-0.0125,-0.0034,39.781,0.828,0.247,80.05007934570312,4.499998569488525,83.61353302001953,13.40000057220459,268698112,False,False,13.53350830078125,True
12.52,231.1666662852731,0,0.72607,40.17,144.6,0.917,0.0,1.0,3,6414.0,-0.584,,0,0.0,,,,,3,31.198,49.507,-24.157,0,4.2825,-0.0176,-0.0108,40.156,1.24,0.122,80.05937194824219,4.499998569488525,83.66047668457031,13.40000057220459,268698112,False,False,13.550722122192383,True
12.62,231.26666628527317,0,0.72709,40.56,146.0,0.926,0.0,1.0,3,6389.0,-0.5612,,0,0.0,,,,,3,31.196,49.682,-17.734,0,4.3233,-0.0222,-0.0037,40.552,0.597,0.174,80.06803131103516,4.499998569488525,83.70770263671875,13.40000057220459,268698112,False,False,13.567188262939453,True
12.72,231.36666628527325,0,0.72813,40.93,147.4,0.942,0.0,1.0,3,6506.0,-0.4422,,0,0.0,,,,,3,31.194,49.934,-12.066,0,4.3559,-0.0171,0.0024,40.931,0.525,0.24,80.07776641845703,4.499998569488525,83.7549057006836,13.40000057220459,268698112,False,False,13.582797050476074,True
12.83,231.46666628527333,0,0.72918,41.35,148.8,0.957,0.0,1.0,3,6567.0,-0.3029,,0,0.0,,,,,3,31.192,50.037,-11.791,0,4.3856,-0.0137,0.0013,41.343,0.553,0.227,80.0883560180664,4.499998569488525,83.80208587646484,13.40000057220459,268698112,False,False,13.59711742401123,True
12.93,231.5666662852734,0,0.73023,41.76,150.3,0.973,0.0,1.0,3,6597.0,-0.3927,,0,0.0,,,,,3,31.19,50.101,-11.49,0,4.4089,-0.013,-0.0024,41.762,0.335,0.201,80.09932708740234,4.499998569488525,83.84900665283203,13.40000057220459,268698112,False,False,13.61069393157959,True
13.03,231.6666662852735,0,0.7313,42.16,151.8,1.0,0.0,1.0,3,6659.0,-0.4889,,0,0.0,,,,,3,31.188,49.987,-13.422,0,4.4381,-0.0139,-0.0065,42.163,0.324,0.182,80.11111450195312,4.499998569488525,83.89533996582031,13.40000057220459,268698112,False,False,13.623631477355957,True
13.13,231.76666628527357,0,0.73237,42.55,153.2,1.0,0.0,1.0,3,6721.0,-0.4001,,0,0.0,,,,,3,31.186,49.766,-12.34,0,4.4687,-0.0126,-0.0051,42.552,0.326,0.234,80.12354278564453,4.499998569488525,83.9407958984375,13.40000057220459,268698112,False,False,13.636008262634277,True
13.23,231.86666628527365,0,0.73344,42.94,154.6,1.0,0.0,1.0,3,6761.0,-0.2693,,0,0.0,,,,,3,31.185,49.568,-9.998,0,4.4952,-0.0125,-0.0069,42.942,0.358,0.175,80.13685607910156,4.499998569488525,83.98518371582031,13.40000057220459,268698112,False,False,13.647895812988281,True
13.33,231.9833329519404,0,0.73453,43.33,156.0,1.0,0.0,1.0,3,6814.0,-0.2662,,0,0.0,,,,,3,31.182,49.224,-8.372,0,4.5166,-0.0099,-0.0164,43.389,0.254,0.212,80.15324401855469,4.499998569488525,84.03556823730469,13.40000057220459,268698112,False,False,13.661219596862793,True
13.43,232.0833329519405,0,0.73581,43.76,157.5,1.0,0.0,1.0,3,6902.0,-0.3584,,0,0.0,,,,,3,31.181,48.802,-10.294,0,4.5376,-0.0064,-0.028,43.758,0.314,0.217,80.16838073730469,4.499998569488525,84.0771713256836,13.40000057220459,268698112,False,False,13.672250747680664,True
13.53,232.18333295194057,0,0.73691,44.12,158.8,1.0,0.0,1.0,3,6942.0,-0.4178,,0,0.0,,,,,3,31.179,48.502,-13.628,0,4.5658,-0.0067,-0.0317,44.116,0.403,0.185,80.18428802490234,4.499998569488525,84.11743927001953,13.40000057220459,268698112,False,False,13.682940483093262,True
13.63,232.28333295194065,0,0.73802,44.45,160.0,1.0,0.0,1.0,3,7026.0,-0.3821,,0,0.0,,,,,3,31.177,48.017,-12.677,0,4.5937,-0.005,-0.0337,44.453,0.39,0.26,80.20079040527344,4.499998569488525,84.15647888183594,13.40000057220459,268698112,False,False,13.693229675292969,True
13.73,232.38333295194073,0,0.73915,44.73,161.0,1.0,0.0,1.0,0,6150.0,-0.3115,,0,0.0,,,,,3,31.175,49.298,-12.252,0,4.6198,-0.0096,-0.0309,44.725,0.29,0.141,80.21428680419922,4.499998569488525,84.15674591064453,13.40000057220459,268698112,False,False,13.703165054321289,True
13.83,232.4833329519408,0,0.74028,44.87,161.5,1.0,0.0,1.0,4,5791.0,-0.3491,,0,0.0,,,,,3,31.173,48.358,-9.693,0,4.6418,-0.0086,-0.0271,44.865,0.307,0.205,80.21612548828125,4.499998569488525,84.17152404785156,13.40000057220459,268698112,False,False,13.71337604522705,True
13.94,232.5833329519409,0,0.74141,45.17,162.6,1.0,0.0,1.0,4,5941.0,-0.39,,0,0.0,,,,,3,31.172,48.818,-12.017,0,4.6665,-0.007,-0.0245,45.17,0.371,0.205,80.21702575683594,4.499998569488525,84.2136459350586,13.40000057220459,268698112,False,False,13.723536491394043,True
14.04,232.68333295194097,0,0.74255,45.49,163.8,1.0,0.0,1.0,4,5969.0,-0.3579,,0,0.0,,,,,3,31.17,48.864,-12.029,0,4.6935,-0.0063,-0.0212,45.486,0.401,0.196,80.21800994873047,4.499998569488525,84.25546264648438,13.40000057220459,268698112,False,False,13.733542442321777,True
14.14,232.78333295194105,0,0.7437,45.8,164.9,1.0,0.0,1.0,4,5999.0,-0.3105,,0,0.0,,,,,3,31.168,48.927,-10.838,0,4.7176,-0.0048,-0.016,45.797,0.378,0.197,80.21943664550781,4.499998569488525,84.29707336425781,13.40000057220459,268698112,False,False,13.74338150024414,True
14.24,232.88333295194113,0,0.74486,46.11,166.0,1.0,0.0,1.0,4,6033.0,-0.2389,,0,0.0,,,,,3,31.166,48.966,-8.999,0,4.738,-0.0031,-0.0111,46.11,0.322,0.204,80.2212142944336,4.499998569488525,84.33842468261719,13.40000057220459,268698112,False,False,13.753046989440918,True
14.34,232.9833329519412,0,0.74603,46.43,167.2,1.0,0.0,1.0,4,6077.0,-0.1417,,0,0.0,,,,,3,31.164,49.056,-7.628,0,4.7535,-0.0037,-0.009,46.432,0.238,0.174,80.22335052490234,4.499998569488525,84.3795394897461,13.40000057220459,268698112,False,False,13.762556076049805,True
14.44,233.0833329519413,0,0.74721,46.75,168.3,1.0,0.0,1.0,4,6131.0,-0.0393,,0,0.0,,,,,3,31.163,49.238,-2.729,0,4.7614,-0.0056,-0.0131,46.748,0.122,0.194,80.22578430175781,4.499998569488525,84.4205551147461,13.40000057220459,268698112,False,False,13.77188777923584,True
14.54,233.18333295194137,0,0.7484,47.07,169.4,1.0,0.0,1.0,4,6140.0,0.0546,,0,0.0,,,,,3,31.161,49.466,0.335,0,4.7625,-0.0106,-0.0148,47.068,0.054,0.115,80.22859954833984,4.499998569488525,84.4616928100586,13.40000057220459,268698112,False,False,13.781037330627441,True
14.64,233.28333295194145,0,0.74959,47.37,170.5,1.0,0.0,1.0,4,6215.0,0.0567,,0,0.0,,,,,3,31.159,49.792,1.542,0,4.7585,-0.0053,-0.0158,47.37,-0.022,0.294,80.23197937011719,4.499998569488525,84.5030288696289,13.40000057220459,268698112,False,False,13.789981842041016,True
14.74,233.38333295194153,0,0.75079,47.69,171.7,1.0,0.0,1.0,4,6235.0,0.084,,0,0.0,,,,,3,31.157,50.053,2.446,0,4.7537,-0.0058,-0.0143,47.69,-0.04,0.161,80.23590850830078,4.499998569488525,84.54473876953125,13.40000057220459,268698112,False,False,13.798693656921387,True
14.84,233.4833329519416,0,0.75201,48.0,172.8,1.0,0.0,1.0,4,6268.0,0.1097,,0,0.0,,,,,3,31.155,50.215,3.142,0,4.7472,-0.0068,-0.0143,48.0,-0.044,0.176,80.2400894165039,4.499998569488525,84.5865249633789,13.40000057220459,268698112,False,False,13.807194709777832,True
14.94,233.58333295194168,0,0.75323,48.3,173.9,1.0,0.0,1.0,4,6319.0,0.1104,,0,0.0,,,,,3,31.153,50.321,3.601,0,4.7392,-0.0058,-0.0155,48.302,-0.077,0.196,80.24483489990234,4.499998569488525,84.62821197509766,13.40000057220459,268698112,False,False,13.815500259399414,True
15.05,233.68333295194176,0,0.75445,48.6,175.0,1.0,0.0,1.0,4,6345.0,0.1013,,0,0.0,,,,,3,31.151,50.378,3.589,0,4.7314,-0.0077,-0.0163,48.605,-0.061,0.163,80.24990844726562,4.499998569488525,84.6697006225586,13.40000057220459,268698112,False,False,13.823628425598145,True
15.15,233.78333295194184,0,0.75569,48.9,176.0,1.0,0.0,1.0,4,6389.0,0.073,,0,0.0,,,,,3,31.15,50.436,2.672,0,4.7249,-0.0075,-0.0181,48.9,-0.057,0.199,80.2554702758789,4.499998569488525,84.7109375,13.40000057220459,268698112,False,False,13.831592559814453,True
15.25,233.8999996186086,0,0.75714,49.24,177.3,1.0,0.0,1.0,4,6429.0,0.0486,,0,0.0,,,,,3,31.147,50.471,1.701,0,4.7192,-0.0063,-0.0179,49.242,-0.051,0.21,80.26253509521484,4.499998569488525,84.75870513916016,13.40000057220459,268698112,False,False,13.840690612792969,True
15.35,233.99999961860868,0,0.75839,49.53,178.3,1.0,0.0,1.0,4,6465.0,0.0215,,0,0.0,,,,,3,31.146,50.48,1.038,0,4.7162,-0.0069,-0.0171,49.531,-0.034,0.191,80.26905822753906,4.499998569488525,84.79927825927734,13.40000057220459,268698112,False,False,13.848329544067383,True
15.45,234.09999961860876,0,0.75965,49.81,179.3,1.0,0.0,1.0,4,6507.0,0.0249,,0,0.0,,,,,3,31.144,50.48,0.685,0,4.7145,-0.0076,-0.0174,49.813,-0.009,0.19,80.27600860595703,4.499998569488525,84.83951568603516,13.40000057220459,268698112,False,False,13.855819702148438,True
15.55,234.19999961860884,0,0.76092,50.09,180.3,1.0,0.0,1.0,4,6546.0,0.0215,,0,0.0,,,,,3,31.142,50.429,0.621,0,4.7128,-0.0068,-0.0182,50.092,-0.007,0.201,80.28343963623047,4.499998569488525,84.87930297851562,13.40000057220459,268698112,False,False,13.863155364990234,True
15.65,234.29999961860892,0,0.76219,50.37,181.3,1.0,0.0,1.0,4,6580.0,0.0194,,0,0.0,,,,,3,31.14,50.362,0.44,0,4.7114,-0.0061,-0.0189,50.366,-0.001,0.203,80.29130554199219,4.499998569488525,84.9186019897461,13.40000057220459,268698112,False,False,13.87033462524414,True
15.75,234.399999618609,0,0.76347,50.63,182.3,1.0,0.0,1.0,4,6615.0,0.0208,,0,0.0,,,,,3,31.138,50.26,0.534,0,4.7099,-0.005,-0.0203,50.635,0.001,0.241,80.29959106445312,4.499998569488525,84.95732879638672,13.40000057220459,268698112,False,False,13.87738037109375,True
15.85,234.49999961860908,0,0.76476,50.9,183.2,1.0,0.0,1.0,4,6649.0,0.0189,,0,0.0,,,,,3,31.136,50.124,0.523,0,4.7084,-0.0067,-0.0208,50.9,0.002,0.186,80.30825805664062,4.499998569488525,84.99542236328125,13.40000057220459,268698112,False,False,13.884298324584961,True
15.95,234.59999961860916,0,0.76605,51.15,184.2,1.0,0.0,1.0,4,6687.0,0.0069,,0,0.0,,,,,3,31.134,49.962,0.197,0,4.7074,-0.0031,-0.0215,51.155,0.003,0.256,80.31739807128906,4.499998569488525,85.03279876708984,13.40000057220459,268698112,False,False,13.891082763671875,True
16.05,234.69999961860924,0,0.76735,51.41,185.1,1.0,0.0,1.0,4,6720.0,0.0057,,0,0.0,,,,,3,31.133,49.792,0.086,0,4.707,0.0009,-0.0183,51.412,0.007,0.2,80.32719421386719,4.499998569488525,85.06932067871094,13.40000057220459,268698112,False,False,13.89774227142334,True
16.16,234.79999961860932,0,0.76866,51.67,186.0,1.0,0.0,1.0,4,6751.0,0.0177,,0,0.0,,,,,3,31.131,49.621,0.408,0,4.7066,0.0029,-0.0206,51.666,0.019,0.191,80.3372802734375,4.499998569488525,85.10514831542969,13.40000057220459,268698112,False,False,13.904272079467773,True
16.26,234.8999996186094,0,0.76997,51.92,186.9,1.0,0.0,1.0,4,6766.0,0.0227,,0,0.0,,,,,3,31.129,49.491,0.678,0,4.7049,0.0013,-0.0187,51.916,-0.004,0.192,80.34754180908203,4.499998569488525,85.1403579711914,13.40000057220459,268698112,False,False,13.910674095153809,True
16.36,234.99999961860948,0,0.77129,52.15,187.8,1.0,0.0,1.0,4,6813.0,0.0206,,0,0.0,,,,,3,31.127,49.249,0.762,0,4.7033,0.0031,-0.0188,52.155,-0.007,0.225,80.35836029052734,4.499998569488525,85.17469787597656,13.40000057220459,268698112,False,False,13.916962623596191,True
16.46,235.09999961860956,0,0.77262,52.39,188.6,1.0,0.0,1.0,4,6832.0,0.0273,,0,0.0,,,,,3,31.125,49.079,0.893,0,4.7015,0.002,-0.0201,52.394,-0.002,0.171,80.36954498291016,4.499998569488525,85.20823669433594,13.40000057220459,268698112,False,False,13.923147201538086,True
16.56,235.19999961860964,0,0.77395,52.62,189.4,1.0,0.0,1.0,4,6877.0,0.0249,,0,0.0,,,,,3,31.123,48.799,0.666,0,4.6997,0.0037,-0.0209,52.621,-0.006,0.235,80.38114929199219,4.499998569488525,85.24089813232422,13.40000057220459,268698112,False,False,13.929222106933594,True
16.66,235.29999961860972,0,0.77529,52.85,190.2,1.0,0.0,1.0,4,6900.0,0.0402,,0,0.0,,,,,3,31.122,48.604,1.011,0,4.6977,0.0041,-0.0216,52.846,-0.005,0.214,80.39313507080078,4.499998569488525,85.27272033691406,13.40000057220459,268698112,False,False,13.93520736694336,True
16.76,235.3999996186098,0,0.77664,53.0,190.8,1.0,0.0,1.0,0,6163.0,0.052,,0,0.0,,,,,3,31.12,49.418,1.817,0,4.6944,0.0056,-0.0203,52.997,-0.026,0.215,80.40235137939453,4.499998569488525,85.26600646972656,13.40000057220459,268698112,False,False,13.941115379333496,True
16.86,235.49999961860988,0,0.77798,53.05,191.0,1.0,0.0,1.0,5,5972.0,0.0481,,0,0.0,,,,,3,31.118,49.149,1.907,0,4.6907,0.0049,-0.0192,53.05,-0.034,0.195,80.4030532836914,4.499998569488525,85.27639770507812,13.40000057220459,268698112,False,False,13.947312355041504,True
16.96,235.59999961860996,0,0.77933,53.26,191.7,1.0,0.0,1.0,5,6004.0,0.0582,,0,0.0,,,,,3,31.116,49.201,2.193,0,4.6865,0.0036,-0.0159,53.256,-0.043,0.184,80.40241241455078,4.499998569488525,85.31208801269531,13.40000057220459,268698112,False,False,13.95346736907959,True
17.06,235.69999961861004,0,0.78069,53.46,192.4,1.0,0.0,1.0,5,6058.0,0.0685,,0,0.0,,,,,3,31.114,49.251,2.399,0,4.6819,0.0056,-0.0139,53.457,-0.054,0.243,80.40193939208984,4.499998569488525,85.34748840332031,13.40000057220459,268698112,False,False,13.959534645080566,True
17.16,235.8166662852768,0,0.78228,53.7,193.3,1.0,0.0,1.0,5,6092.0,0.0996,,0,0.0,,,,,3,31.112,49.285,3.411,0,4.675,0.0096,-0.0125,53.695,-0.092,0.243,80.40180206298828,4.499998569488525,85.38846588134766,13.40000057220459,268698112,False,False,13.9664888381958,True
17.27,235.91666628527688,0,0.78364,53.9,194.0,1.0,0.0,1.0,5,6093.0,0.1334,,0,0.0,,,,,3,31.11,49.284,4.622,0,4.6663,0.0082,-0.012,53.901,-0.113,0.134,80.40184020996094,4.499998569488525,85.4233627319336,13.40000057220459,268698112,False,False,13.972345352172852,True
17.37,236.01666628527695,0,0.78501,54.1,194.7,1.0,0.0,1.0,5,6131.0,0.1307,,0,0.0,,,,,3,31.109,49.427,4.516,0,4.6567,0.0146,-0.0095,54.095,-0.164,0.302,80.40216827392578,4.499998569488525,85.4581298828125,13.40000057220459,268698112,False,False,13.978114128112793,True
17.47,236.11666628527703,0,0.78639,54.3,195.5,1.0,0.0,1.0,5,6145.0,0.1288,,0,0.0,,,,,3,31.107,49.585,6.29,0,4.6451,0.0145,-0.0074,54.302,-0.217,0.148,80.40283966064453,4.499998569488525,85.4930419921875,13.40000057220459,268698112,False,False,13.983779907226562,True
17.57,236.2166662852771,0,0.78777,54.5,196.2,1.0,0.0,1.0,5,6170.0,0.1176,,0,0.0,,,,,3,31.105,49.685,5.087,0,4.6357,0.0144,-0.0088,54.502,-0.141,0.192,80.403564453125,4.499998569488525,85.52796173095703,13.40000057220459,268698112,False,False,13.989346504211426,True
17.67,236.3166662852772,0,0.78916,54.7,196.9,1.0,0.0,1.0,5,6195.0,0.1137,,0,0.0,,,,,3,31.103,49.841,4.593,0,4.6269,0.0157,-0.0093,54.701,-0.138,0.206,80.4045639038086,4.499998569488525,85.56290435791016,13.40000057220459,268698112,False,False,13.994804382324219,True
17.77,236.41666628527727,0,0.79055,54.9,197.6,1.0,0.0,1.0,5,6219.0,0.1183,,0,0.0,,,,,3,31.101,49.993,4.808,0,4.6179,0.0179,-0.0086,54.901,-0.151,0.215,80.40586853027344,4.499998569488525,85.59793090820312,13.40000057220459,268698112,False,False,14.000160217285156,True
17.87,236.51666628527735,0,0.79195,55.1,198.4,1.0,0.0,1.0,5,6227.0,0.1101,,0,0.0,,,,,3,31.099,50.104,4.901,0,4.6086,0.0165,-0.0087,55.102,-0.145,0.139,80.40735626220703,4.499998569488525,85.63301849365234,13.40000057220459,268698112,False,False,14.00540542602539,True
17.97,236.61666628527743,0,0.79335,55.3,199.1,1.0,0.0,1.0,5,6269.0,0.1082,,0,0.0,,,,,3,31.097,50.219,4.333,0,4.6003,0.0186,-0.0101,55.296,-0.124,0.245,80.40908813476562,4.499998569488525,85.6680908203125,13.40000057220459,268698112,False,False,14.010260581970215,True
18.07,236.7166662852775,0,0.79475,55.49,199.8,1.0,0.0,1.0,5,6288.0,0.0915,,0,0.0,,,,,3,31.096,50.291,4.133,0,4.5921,0.021,-0.0111,55.494,-0.143,0.228,80.41114807128906,4.499998569488525,85.70309448242188,13.40000057220459,268698112,False,False,14.014925003051758,True
18.17,236.8166662852776,0,0.79616,55.69,200.5,1.0,0.0,1.0,5,6304.0,0.0402,,0,0.0,,,,,3,31.094,50.327,2.693,0,4.586,0.0217,-0.0112,55.692,-0.111,0.203,80.41339111328125,4.499998569488525,85.73795318603516,13.40000057220459,268698112,False,False,14.019498825073242,True
18.28,236.91666628527767,0,0.79758,55.89,201.2,1.0,0.0,1.0,5,6330.0,0.0369,,0,0.0,,,,,3,31.092,50.364,1.536,0,4.5832,0.0241,-0.0102,55.889,-0.053,0.227,80.4158935546875,4.499998569488525,85.77262115478516,13.40000057220459,268698112,False,False,14.02399730682373,True
18.38,237.01666628527775,0,0.799,56.09,201.9,1.0,0.0,1.0,5,6343.0,0.0029,,0,0.0,,,,,3,31.09,50.395,1.082,0,4.581,0.0248,-0.0088,56.087,-0.042,0.188,80.41863250732422,4.499998569488525,85.80711364746094,13.40000057220459,268698112,False,False,14.028427124023438,True
18.48,237.11666628527783,0,0.80042,56.28,202.6,1.0,0.0,1.0,5,6366.0,-0.0275,,0,0.0,,,,,3,31.088,50.425,-0.518,0,4.5817,0.0254,-0.0097,56.281,0.013,0.184,80.42158508300781,4.499998569488525,85.8414077758789,13.40000057220459,268698112,False,False,14.032793998718262,True
18.58,237.2166662852779,0,0.80185,56.44,203.2,0.42,0.0,1.0,5,6255.0,-0.0467,,0,0.0,,,,,3,31.087,25.854,-1.649,0,4.5845,0.0289,-0.01,56.438,0.061,0.231,80.42423248291016,4.499998569488525,85.85906219482422,13.40000057220459,268698112,False,False,14.037090301513672,True
18.68,237.316666285278,0,0.80327,55.78,200.8,0.0,0.348,1.0,5,6274.0,-0.0503,,0,0.0,,,,,3,31.086,0.947,-2.57,0,4.5894,0.034,-0.0102,55.777,0.13,0.369,80.42517852783203,4.499998569488525,85.78195190429688,13.40000057220459,268698112,False,False,14.041864395141602,True
18.78,237.41666628527807,0,0.80467,54.42,195.9,0.0,0.378,1.0,5,6020.0,-0.0292,,0,0.0,,,,,3,31.086,0.928,-3.199,0,4.596,0.035,-0.0099,54.424,0.201,0.364,80.42474365234375,4.499998569488525,85.70249938964844,13.40000057220459,268698112,False,False,14.048768997192383,True
18.88,237.53333295194483,0,0.80625,52.8,190.1,0.0,0.357,1.0,5,5839.0,-0.0168,,0,0.0,,,,,3,31.086,0.913,-2.749,0,4.6019,0.0383,-0.01,52.803,0.195,0.421,80.42243194580078,4.499998569488525,85.61354064941406,13.40000057220459,268698112,False,False,14.060073852539062,True
18.98,237.6333329519449,0,0.80758,51.49,185.4,0.0,0.337,1.0,5,5708.0,0.0156,,0,0.0,,,,,3,31.086,0.901,-1.908,0,4.6058,0.0388,-0.0146,51.488,0.166,0.399,80.41899108886719,4.499998569488525,85.54039001464844,13.40000057220459,268698112,False,False,14.072461128234863,True
19.08,237.733332951945,0,0.80886,50.24,180.9,0.0,0.333,1.0,5,5569.0,-0.0352,,0,0.0,,,,,3,31.086,0.889,-2.346,0,4.6082,0.041,-0.0145,50.244,0.116,0.403,80.41424560546875,4.499998569488525,85.47002410888672,13.40000057220459,268698112,False,False,14.087113380432129,True
19.18,237.83333295194507,0,0.81012,48.98,176.3,0.0,0.349,1.0,5,5433.0,-0.0227,,0,0.0,,,,,3,31.086,0.876,-2.46,0,4.6138,0.0416,-0.0171,48.983,0.155,0.399,80.40838623046875,4.499998569488525,85.40223693847656,13.40000057220459,268698112,False,False,14.10252857208252,True
19.28,237.93333295194515,0,0.81134,47.71,171.8,0.0,0.357,1.0,5,5284.0,-0.0165,,0,0.0,,,,,3,31.086,0.862,-2.007,0,4.6179,0.0451,-0.0178,47.709,0.145,0.438,80.4013671875,4.499998569488525,85.33714294433594,13.40000057220459,268698112,False,False,14.11682415008545,True
19.39,238.03333295194523,0,0.81254,46.42,167.1,0.0,0.358,1.0,4,6029.0,-0.0268,,0,0.0,,,,,3,31.086,0.928,-1.944,0,4.6208,0.05,-0.0176,46.418,0.109,0.469,80.39878845214844,4.499998569488525,85.2802963256836,13.40000057220459,268698112,False,False,14.129847526550293,True
19.49,238.1333329519453,0,0.8137,45.13,162.5,0.0,0.355,1.0,4,5751.0,-0.018,,0,0.0,,,,,3,31.086,0.905,-1.674,0,4.6241,0.0484,-0.0168,45.13,0.098,0.365,80.39805603027344,4.499998569488525,85.21142578125,13.40000057220459,268698112,False,False,14.141617774963379,True
19.59,238.23333295194539,0,0.81482,43.87,157.9,0.0,0.346,1.0,4,5602.0,-0.029,,0,0.0,,,,,3,31.086,0.892,-1.903,0,4.6276,0.0482,-0.0178,43.867,0.089,0.394,80.39595031738281,4.499998569488525,85.14533233642578,13.40000057220459,268698112,False,False,14.152117729187012,True
19.69,238.33333295194547,0,0.81592,42.65,153.6,0.521,0.331,1.0,0,5595.0,-0.0354,,0,0.0,,,,,3,31.086,22.441,-1.75,0,4.6307,0.049,-0.0183,42.654,0.067,0.401,80.39279174804688,4.499998569488525,85.08978271484375,13.40000057220459,268698112,False,False,14.161259651184082,True
19.79,238.43333295194554,0,0.81698,41.47,149.3,0.0,0.313,1.0,3,6410.0,-0.0493,,0,0.0,,,,,3,31.086,0.957,-1.979,0,4.6344,0.0509,-0.0183,41.467,0.066,0.4,80.40019989013672,4.499998569488525,85.027099609375,13.40000057220459,268698112,False,False,14.168967247009277,True
19.89,238.53333295194562,0,0.81802,40.35,145.3,0.0,0.288,1.0,3,6171.0,-0.0364,,0,0.0,,,,,3,31.086,0.939,-2.057,0,4.6386,0.0503,-0.0186,40.352,0.07,0.368,80.40667724609375,4.499998569488525,84.9573974609375,13.40000057220459,268698112,False,False,14.17518138885498,True
20.0,238.64999961861238,0,0.81919,39.15,141.0,0.0,0.262,1.0,3,6016.0,-0.033,,0,0.0,,,,,3,31.085,0.927,-1.799,0,4.6419,0.0529,-0.0184,39.155,0.047,0.469,80.41229248046875,4.499998569488525,84.8792495727539,13.40000057220459,268698112,False,False,14.180474281311035,True
20.1,238.74999961861246,0,0.82017,38.19,137.5,0.0,0.253,1.0,3,5868.0,-0.0204,,0,0.0,,,,,3,31.085,0.915,-1.175,0,4.6448,0.0498,-0.0176,38.19,0.042,0.322,80.41545867919922,4.499998569488525,84.81497192382812,13.40000057220459,268698112,False,False,14.183058738708496,True
20.2,238.84999961861254,0,0.82113,37.25,134.1,0.75,0.288,1.0,0,6466.0,-0.0292,,0,0.0,,,,,3,31.085,30.783,-1.084,0,4.6467,0.0501,-0.0175,37.254,0.033,0.338,80.41899108886719,4.499998569488525,84.77169799804688,13.40000057220459,268698112,False,False,14.18382453918457,True
20.3,238.94999961861262,0,0.82205,36.08,129.9,0.0,0.364,1.0,2,6850.0,-0.085,,0,0.0,,,,,3,31.085,0.986,-2.104,0,4.6498,0.0508,-0.0178,36.079,0.029,0.367,80.43576049804688,4.499998569488525,84.70130157470703,13.40000057220459,268698112,False,False,14.183174133300781,True
20.4,239.0499996186127,0,0.82295,34.74,125.1,0.0,0.423,1.0,2,6515.0,-0.12,,0,0.0,,,,,3,31.085,0.964,-2.668,0,4.6569,0.0514,-0.0176,34.741,0.057,0.383,80.44942474365234,4.499998569488525,84.63294982910156,13.40000057220459,268698112,False,False,14.181510925292969,True
20.5,239.14999961861278,0,0.82381,33.24,119.7,0.0,0.459,1.0,2,6211.0,-0.1286,,0,0.0,,,,,3,31.085,0.943,-3.426,0,4.6665,0.0492,-0.0176,33.241,0.085,0.34,80.45951080322266,4.499998569488525,84.56893157958984,13.40000057220459,268698112,False,False,14.179021835327148,True
20.6,239.24999961861286,0,0.82464,31.71,114.2,0.0,0.463,1.0,2,5884.0,-0.1482,,0,0.0,,,,,3,31.085,0.916,-3.576,0,4.6769,0.0491,-0.0158,31.709,0.1,0.363,80.46612548828125,4.499998569488525,84.5093765258789,13.40000057220459,268698112,False,False,14.175872802734375,True
20.71,239.34999961861294,0,0.82542,30.17,108.6,0.0,0.473,1.0,2,5602.0,-0.1762,,0,0.0,,,,,3,31.085,0.892,-4.096,0,4.6892,0.0472,-0.0146,30.17,0.109,0.326,80.46964263916016,4.499998569488525,84.45418548583984,13.40000057220459,268698112,False,False,14.172159194946289,True
20.81,239.44999961861302,0,0.82616,28.6,103.0,0.0,0.49,1.0,2,5289.0,-0.2131,,0,0.0,,,,,3,31.085,0.862,-4.372,0,4.7027,0.0468,-0.0134,28.599,0.098,0.346,80.47044372558594,4.499998569488525,84.4031982421875,13.40000057220459,268698112,False,False,14.168478965759277,True
20.91,239.5499996186131,0,0.82687,27.01,97.2,0.0,0.49,1.0,2,4971.0,-0.2514,,0,0.0,,,,,3,31.085,0.83,-4.751,0,4.7194,0.0457,-0.0119,27.012,0.126,0.31,80.4685287475586,4.499998569488525,84.35661315917969,13.40000057220459,268698112,False,False,14.166604995727539,True
21.01,239.64999961861318,0,0.82753,25.46,91.7,0.0,0.463,1.0,2,4697.0,-0.2557,,0,0.0,,,,,3,31.085,0.8,-4.931,0,4.738,0.0447,-0.0107,25.459,0.13,0.3,80.46459197998047,4.499998569488525,84.31393432617188,13.40000057220459,268698112,False,False,14.16808795928955,True
21.11,239.74999961861326,0,0.82816,24.03,86.5,0.0,0.434,1.0,1,5387.0,-0.2854,,0,0.0,,,,,3,31.085,0.872,-4.809,0,4.7562,0.0434,-0.0095,24.033,0.094,0.269,80.46363830566406,4.499998569488525,84.28474426269531,13.40000057220459,268698112,False,False,14.17358684539795,True
21.21,239.84999961861334,0,0.82875,22.61,81.4,0.0,0.38,1.0,1,5372.0,-0.3493,,0,0.0,,,,,3,31.085,0.87,-5.283,0,4.776,0.0419,-0.0093,22.608,0.067,0.255,80.46824645996094,4.499998569488525,84.23851013183594,13.40000057220459,268698112,False,False,14.18364429473877,True
21.31,239.94999961861342,0,0.82932,21.39,77.0,0.0,0.337,1.0,1,5160.0,-0.4386,,0,0.0,,,,,3,31.084,0.849,-5.661,0,4.7965,0.0407,-0.0099,21.395,-0.013,0.237,80.4705810546875,4.499998569488525,84.19572448730469,13.40000057220459,268698112,False,False,14.197381019592285,True
21.41,240.0499996186135,0,0.82986,20.3,73.1,0.0,0.315,1.0,1,4905.0,-0.549,,0,0.0,,,,,3,31.084,0.822,-5.627,0,4.8199,0.0386,-0.0102,20.303,-0.07,0.214,80.47097778320312,4.499998569488525,84.15605926513672,13.40000057220459,268698112,False,False,14.215254783630371,True
21.51,240.16666628528026,0,0.83045,19.14,68.9,0.0,0.265,1.0,1,4638.0,-0.8128,,0,0.0,,,,,3,31.084,0.793,-7.361,0,4.8528,0.0364,-0.0115,19.138,-0.154,0.2,80.4693832397461,4.499998569488525,84.11336517333984,13.40000057220459,268698112,False,False,14.2410306930542,True
21.61,240.26666628528034,0,0.83093,18.28,65.8,0.0,0.229,1.0,1,4439.0,-1.1066,,0,0.0,,,,,3,31.084,0.77,-8.873,0,4.8911,0.0351,-0.013,18.28,-0.236,0.186,80.46661376953125,4.499998569488525,84.07939910888672,13.40000057220459,268698112,False,False,14.26700496673584,True
21.72,240.36666628528042,0,0.83139,17.53,63.1,0.0,0.187,1.0,1,4261.0,-1.3073,,0,0.0,,,,,3,31.084,0.748,-9.754,0,4.9393,0.0335,-0.015,17.523,-0.297,0.174,80.4627914428711,4.492993354797363,84.04754638671875,13.40000057220459,268698112,False,False,14.297038078308105,True
21.82,240.4666662852805,0,0.83182,16.93,60.9,0.0,0.094,1.0,1,4139.0,-1.4368,,0,0.0,,,,,3,31.084,0.733,-10.254,0,4.9931,0.0311,-0.0166,16.923,-0.359,0.16,80.4587173461914,4.391754150390625,84.01738739013672,13.40000057220459,268698112,False,False,14.330329895019531,True
21.92,240.56666628528058,0,0.83223,16.65,59.9,0.0,0.0,1.0,1,4101.0,-1.6051,,0,0.0,,,,,3,31.084,0.728,-10.733,0,5.0495,0.0275,-0.0169,16.639,-0.449,0.132,80.4547119140625,4.2971391677856445,83.98806762695312,13.40000057220459,268698112,False,False,14.365203857421875,True
22.02,240.66666628528066,0,0.83263,16.51,59.4,0.0,0.0,1.0,1,4065.0,-1.7665,,0,0.0,,,,,3,31.084,0.723,-11.062,0,5.1099,0.0245,-0.0174,16.5,-0.524,0.135,80.45072937011719,4.234189033508301,83.95913696289062,13.40000057220459,268698112,False,False,14.400030136108398,True
22.12,240.76666628528073,0,0.83303,16.37,58.9,0.0,0.0,1.0,1,4031.0,-1.9365,,0,0.0,,,,,3,31.084,0.719,-11.697,0,5.1755,0.0225,-0.0205,16.358,-0.553,0.133,80.44674682617188,4.179194927215576,83.93059539794922,13.40000057220459,268698112,False,False,14.434943199157715,True
22.22,240.86666628528081,0,0.83341,16.22,58.4,0.0,0.0,1.0,1,3993.0,-2.1065,,0,0.0,,,,,3,31.084,0.714,-12.609,0,5.2467,0.0202,-0.0237,16.207,-0.594,0.137,80.44276428222656,4.124037742614746,83.90243530273438,13.40000057220459,268698112,False,False,14.470219612121582,True
22.32,240.9666662852809,0,0.83379,16.06,57.8,0.0,0.0,1.0,1,3954.0,-2.2408,,0,0.0,,,,,3,31.084,0.709,-13.068,0,5.3231,0.018,-0.0264,16.052,-0.611,0.121,80.43875885009766,4.068068981170654,83.87469482421875,13.40000057220459,268698112,False,False,14.505488395690918,True
22.42,241.06666628528097,0,0.83416,15.9,57.2,0.0,0.0,1.0,1,3914.0,-2.3562,,0,0.0,,,,,3,31.084,0.704,-13.908,0,5.4038,0.0166,-0.028,15.888,-0.649,0.143,80.43473052978516,4.01094913482666,83.84739685058594,13.40000057220459,268698112,False,False,14.5409517288208,True
