Timestamp,SessionTime,Lap,LapDistPct,Speed_ms,Speed_kmh,Throttle,Brake,Clutch,Gear,RPM,SteeringWheelAngle,Position,ClassPosition,LapCurrentLapTime,LastLapTime,BestLapTime,Gap_Ahead_s,Gap_Behind_s,Incidents,FuelLevel,FuelUsePerHour,LatAccel,LonAccel,YawNorth,Pitch,Roll,VelocityX,VelocityY,VelocityZ,OilTemp,OilPress,WaterTemp,Voltage,SessionFlags,OnPitRoad,PlayerCarInPitStall,LapDeltaToBestLap,LapDeltaToBestLap_OK
0.0,3450.900000010153,0,0.08167,0.0,0.0,0.0,1.0,0,1,1300.0,0.0711,3,3,61.40909957885742,73.96369934082031,73.94259643554688,,,16,31.98,0.691,-0.095,0,2.1295,0.0229,-0.0121,0.0,0.0,0.0,77.93379974365234,3.3749992847442627,77.50634765625,13.40000057220459,268697600,True,False,0.0,False
0.1,3451.000000010154,0,0.08167,0.0,0.0,0.0,1.0,0,1,1300.0,0.0713,3,3,61.50910186767578,73.96369934082031,73.94259643554688,597.75,,16,31.98,0.691,-0.125,0,2.1295,0.0229,-0.0121,0.0,0.0,-0.0,77.93622589111328,3.3749992847442627,77.50675964355469,13.40000057220459,268697600,True,False,0.0,False
0.2,3451.1000000101553,0,0.08167,0.0,0.0,0.0,1.0,0,1,1300.0,0.0725,3,3,61.609100341796875,73.96369934082031,73.94259643554688,597.75,,16,31.98,0.691,-0.121,0,2.1295,0.0229,-0.0121,0.0,0.0,0.0,77.93865203857422,3.3749992847442627,77.50717163085938,13.40000057220459,268697600,True,False,0.0,False
0.3,3451.2000000101566,0,0.08167,0.0,0.0,0.0,1.0,0,1,1300.0,0.0752,3,3,61.70909881591797,73.96369934082031,73.94259643554688,597.75,,16,31.98,0.691,-0.118,0,2.1295,0.0229,-0.0121,0.0,-0.0,0.0,77.94107818603516,3.3749992847442627,77.50758361816406,13.40000057220459,268697600,True,False,0.0,False
0.41,3451.300000010158,0,0.08167,0.0,0.0,0.0,1.0,0,1,1300.0,0.0769,3,3,61.80910110473633,73.96369934082031,73.94259643554688,597.75,,16,31.98,0.691,-0.116,0,2.1295,0.0229,-0.0121,-0.0,0.0,-0.0,77.9435043334961,3.3749992847442627,77.50799560546875,13.40000057220459,268697600,True,False,0.0,False
0.51,3451.400000010159,0,0.08167,0.0,0.0,0.0,1.0,0,1,1300.0,0.08,3,3,61.90909957885742,73.96369934082031,73.94259643554688,597.75,,16,31.98,0.691,-0.126,0,2.1295,0.0229,-0.0121,-0.0,-0.0,-0.0,77.94593048095703,3.3749992847442627,77.50840759277344,13.40000057220459,268697600,True,False,0.0,False
0.61,3451.5000000101604,0,0.08167,0.0,0.0,0.0,1.0,0,1,1300.0,0.0778,3,3,62.00910186767578,73.96369934082031,73.94259643554688,597.75,,16,31.98,0.691,-0.119,0,2.1295,0.0229,-0.0121,0.0,-0.0,0.0,77.94837188720703,3.3749992847442627,77.50881958007812,13.40000057220459,268697600,True,False,0.0,False
0.71,3451.6000000101617,0,0.08167,0.0,0.0,0.0,1.0,0,1,1300.0,0.0785,3,3,62.109100341796875,73.96369934082031,73.94259643554688,597.75,,16,31.98,0.691,-0.121,0,2.1295,0.0229,-0.0121,-0.0,0.0,-0.0,77.95079803466797,3.3749992847442627,77.50923156738281,13.40000057220459,268697600,True,False,0.0,False
0.81,3451.700000010163,0,0.08167,0.0,0.0,0.0,1.0,0,1,1300.0,0.079,3,3,62.20909881591797,73.96369934082031,73.94259643554688,597.75,,16,31.98,0.691,-0.114,0,2.1295,0.0229,-0.0121,0.0,-0.0,0.0,77.95323181152344,3.3749992847442627,77.5096435546875,13.40000057220459,268697600,True,False,0.0,False
0.91,3451.8000000101642,0,0.08167,0.0,0.0,0.0,1.0,0,1,1300.0,0.0773,3,3,62.30910110473633,73.96369934082031,73.94259643554688,597.75,,16,31.98,0.691,-0.117,0,2.1295,0.0229,-0.0121,0.0,-0.0,-0.0,77.95565795898438,3.3749992847442627,77.51005554199219,13.40000057220459,268697600,True,False,0.0,False
1.01,3451.9166666768324,0,0.08167,0.0,0.0,0.0,1.0,0,1,1300.0,0.0764,3,3,62.42576599121094,73.96369934082031,73.94259643554688,597.75,,16,31.98,0.691,-0.116,0,2.1295,0.0229,-0.0121,-0.0,-0.0,0.0,77.95848846435547,3.3749992847442627,77.51053619384766,13.40000057220459,268697600,True,False,0.0,False
1.11,3452.0166666768337,0,0.08167,0.0,0.0,0.0,1.0,0,1,1300.0,0.0754,3,3,62.5257682800293,73.96369934082031,73.94259643554688,597.75,,16,31.98,0.691,-0.121,0,2.1295,0.0229,-0.0121,0.0,-0.0,0.0,77.96092224121094,3.3749992847442627,77.51094818115234,13.40000057220459,268697600,True,False,0.0,False
1.21,3452.116666676835,0,0.08167,0.0,0.0,0.0,1.0,0,1,1300.0,0.0745,3,3,62.62576675415039,73.96369934082031,73.94259643554688,597.75,,16,31.98,0.691,-0.124,0,2.1295,0.0229,-0.0121,-0.0,-0.0,0.0,77.96334838867188,3.3749992847442627,77.51136016845703,13.40000057220459,268697600,True,False,0.0,False
1.31,3452.216666676836,0,0.08167,0.0,0.0,0.0,1.0,0,1,1300.0,0.0747,3,3,62.725765228271484,73.96369934082031,73.94259643554688,597.75,,16,31.98,0.691,-0.11,0,2.1295,0.0229,-0.0121,0.0,-0.0,-0.0,77.96578216552734,3.3749992847442627,77.51177215576172,13.40000057220459,268697600,True,False,0.0,False
1.41,3452.3166666768375,0,0.08167,0.0,0.0,0.0,1.0,0,1,1300.0,0.0764,3,3,62.825767517089844,73.96369934082031,73.94259643554688,597.75,,16,31.98,0.691,-0.118,0,2.1295,0.0229,-0.0121,0.0,0.0,0.0,77.96820831298828,3.3749992847442627,77.5121841430664,13.40000057220459,268697600,True,False,0.0,False
1.51,3452.4166666768388,0,0.08167,0.0,0.0,0.0,1.0,0,1,1300.0,0.0747,3,3,62.92576599121094,73.96369934082031,73.94259643554688,597.75,,16,31.98,0.691,-0.125,0,2.1295,0.0229,-0.0121,0.0,-0.0,0.0,77.97063446044922,3.3749992847442627,77.5125961303711,13.40000057220459,268697600,True,False,0.0,False
1.61,3452.51666667684,0,0.08167,0.0,0.0,0.0,1.0,0,1,1300.0,0.0769,3,3,63.0257682800293,73.96369934082031,73.94259643554688,597.75,,16,31.98,0.691,-0.122,0,2.1295,0.0229,-0.0121,0.0,0.0,-0.0,77.97306060791016,3.3749992847442627,77.51300811767578,13.40000057220459,268697600,True,False,0.0,False
1.72,3452.6166666768413,0,0.08167,0.0,0.0,0.0,1.0,0,1,1300.0,0.0764,3,3,63.12576675415039,73.96369934082031,73.94259643554688,597.75,,16,31.98,0.691,-0.115,0,2.1295,0.0229,-0.0121,0.0,-0.0,0.0,77.9754867553711,3.3749992847442627,77.51342010498047,13.40000057220459,268697600,True,False,0.0,False
1.82,3452.7166666768426,0,0.08167,0.0,0.0,0.0,1.0,0,1,1300.0,0.0757,3,3,63.225765228271484,73.96369934082031,73.94259643554688,597.75,,16,31.98,0.691,-0.117,0,2.1295,0.0229,-0.0121,0.0,-0.0,-0.0,77.97791290283203,3.3749992847442627,77.51383209228516,13.40000057220459,268697600,True,False,0.0,False
1.92,3452.816666676844,0,0.08167,0.0,0.0,0.0,1.0,0,1,1300.0,0.0773,3,3,63.325767517089844,73.96369934082031,73.94259643554688,597.75,,16,31.98,0.691,-0.114,0,2.1295,0.0229,-0.0121,-0.0,-0.0,-0.0,77.98033905029297,3.3749992847442627,77.51424407958984,13.40000057220459,268697600,True,False,0.0,False
2.02,3452.916666676845,0,0.08167,0.0,0.0,0.0,1.0,0,1,1300.0,0.0752,3,3,63.42576599121094,73.96369934082031,73.94259643554688,597.75,,16,31.98,0.691,-0.115,0,2.1295,0.0229,-0.0121,0.0,-0.0,0.0,77.9827651977539,3.3749992847442627,77.51465606689453,13.40000057220459,268697600,True,False,0.0,False
2.12,3453.0166666768464,0,0.08167,0.0,0.0,0.0,1.0,0,1,1300.0,0.0749,3,3,63.5257682800293,73.96369934082031,73.94259643554688,597.75,,16,31.98,0.691,-0.126,0,2.1295,0.0229,-0.0121,-0.0,-0.0,0.0,77.98519897460938,3.3749992847442627,77.51506805419922,13.40000057220459,268697600,True,False,0.0,False
2.22,3453.1166666768477,0,0.08167,0.0,0.0,0.0,1.0,0,1,1300.0,0.0742,3,3,63.62576675415039,73.96369934082031,73.94259643554688,597.75,,16,31.98,0.691,-0.118,0,2.1295,0.0229,-0.0121,-0.0,-0.0,-0.0,77.98762512207031,3.3749992847442627,77.5154800415039,13.40000057220459,268697600,True,False,0.0,False
2.32,3453.216666676849,0,0.08167,0.0,0.0,0.0,1.0,0,1,1300.0,0.0742,3,3,63.725765228271484,73.96369934082031,73.94259643554688,597.75,,16,31.98,0.691,-0.122,0,2.1295,0.0229,-0.0121,-0.0,0.0,0.0,77.99005126953125,3.3749992847442627,77.5158920288086,13.40000057220459,268697600,True,False,0.0,False
2.42,3453.31666667685,0,0.08167,0.0,0.0,0.0,1.0,0,1,1300.0,0.0749,3,3,63.825767517089844,73.96369934082031,73.94259643554688,597.75,,16,31.98,0.691,-0.117,0,2.1295,0.0229,-0.0121,-0.0,0.0,-0.0,77.99247741699219,3.3749992847442627,77.51630401611328,13.40000057220459,268697600,True,False,0.0,False
2.52,3453.4166666768515,0,0.08167,0.0,0.0,0.0,1.0,0,1,1300.0,0.0759,3,3,63.92576599121094,73.96369934082031,73.94259643554688,597.75,,16,31.98,0.691,-0.122,0,2.1295,0.0229,-0.0121,0.0,0.0,0.0,77.99491119384766,3.3749992847442627,77.5167236328125,13.40000057220459,268697600,True,False,0.0,False
2.62,3453.5166666768528,0,0.08167,0.0,0.0,0.0,1.0,0,1,1300.0,0.0754,3,3,64.02576446533203,73.96369934082031,73.94259643554688,597.75,,16,31.98,0.691,-0.123,0,2.1295,0.0229,-0.0121,-0.0,0.0,-0.0,77.9973373413086,3.3749992847442627,77.51713562011719,13.40000057220459,268697600,True,False,0.0,False
2.72,3453.616666676854,0,0.08167,0.0,0.0,0.0,1.0,0,1,1300.0,0.0766,3,3,64.12576293945312,73.96369934082031,73.94259643554688,597.75,,16,31.98,0.691,-0.118,0,2.1295,0.0229,-0.0121,0.0,-0.0,0.0,77.99976348876953,3.3749992847442627,77.51754760742188,13.40000057220459,268697600,True,False,0.0,False
2.82,3453.7166666768553,0,0.08167,0.0,0.0,0.0,1.0,0,1,1300.0,0.0754,3,3,64.22576904296875,73.96369934082031,73.94259643554688,597.75,,16,31.98,0.691,-0.121,0,2.1295,0.0229,-0.0121,0.0,-0.0,0.0,78.00218963623047,3.3749992847442627,77.51795959472656,13.40000057220459,268697600,True,False,0.0,False
2.93,3453.8166666768566,0,0.08167,0.0,0.0,0.0,1.0,0,1,1300.0,0.0773,3,3,64.32576751708984,73.96369934082031,73.94259643554688,597.75,,16,31.98,0.691,-0.111,0,2.1295,0.0229,-0.0121,0.0,0.0,0.0,78.0046157836914,3.3749992847442627,77.51837158203125,13.40000057220459,268697600,True,False,0.0,False
3.03,3453.9333333435247,0,0.08167,0.0,0.0,0.0,1.0,0,1,1300.0,0.0781,3,3,64.44243621826172,73.96369934082031,73.94259643554688,597.75,,16,31.98,0.691,-0.121,0,2.1295,0.0229,-0.0121,-0.0,-0.0,-0.0,78.0074462890625,3.3749992847442627,77.51885223388672,13.40000057220459,268697600,True,False,0.0,False
3.13,3454.033333343526,0,0.08167,0.0,0.0,0.0,1.0,0,1,1300.0,0.0766,3,3,64.54243469238281,73.96369934082031,73.94259643554688,597.75,,16,31.979,0.691,-0.118,0,2.1295,0.0229,-0.0121,-0.0,-0.0,0.0,78.00987243652344,3.3749992847442627,77.5192642211914,13.40000057220459,268697600,True,False,0.0,False
3.23,3454.1333333435273,0,0.08167,0.0,0.0,0.0,1.0,0,1,1300.0,0.0761,3,3,64.6424331665039,73.96369934082031,73.94259643554688,597.75,,16,31.979,0.691,-0.116,0,2.1295,0.0229,-0.0121,-0.0,0.0,-0.0,78.01229858398438,3.3749992847442627,77.5196762084961,13.40000057220459,268697600,True,False,0.0,False
3.33,3454.2333333435286,0,0.08167,0.0,0.0,0.0,1.0,0,1,1300.0,0.0764,3,3,64.742431640625,73.96369934082031,73.94259643554688,597.75,,16,31.979,0.691,-0.119,0,2.1295,0.0229,-0.0121,-0.0,0.0,-0.0,78.01473236083984,3.3749992847442627,77.52009582519531,13.40000057220459,268697600,True,False,0.0,False
3.43,3454.33333334353,0,0.08167,0.0,0.0,0.0,1.0,0,1,1300.0,0.0757,3,3,64.8424301147461,73.96369934082031,73.94259643554688,597.75,,16,31.979,0.691,-0.118,0,2.1295,0.0229,-0.0121,-0.0,0.0,0.0,78.01715850830078,3.3749992847442627,77.5205078125,13.40000057220459,268697600,True,False,0.0,False
3.53,3454.433333343531,0,0.08167,0.0,0.0,0.0,1.0,0,1,1300.0,0.0742,3,3,64.94243621826172,73.96369934082031,73.94259643554688,597.75,,16,31.979,0.691,-0.121,0,2.1295,0.0229,-0.0121,0.0,-0.0,0.0,78.01958465576172,3.3749992847442627,77.52091979980469,13.40000057220459,268697600,True,False,0.0,False
3.63,3454.5333333435324,0,0.08167,0.0,0.0,0.0,1.0,0,1,1300.0,0.0733,3,3,65.04243469238281,73.96369934082031,73.94259643554688,597.75,,16,31.979,0.691,-0.118,0,2.1295,0.0229,-0.0121,0.0,-0.0,0.0,78.02201080322266,3.3749992847442627,77.52133178710938,13.40000057220459,268697600,True,False,0.0,False
3.73,3454.6333333435336,0,0.08167,0.0,0.0,0.0,1.0,0,1,1300.0,0.0701,3,3,65.1424331665039,73.96369934082031,73.94259643554688,597.75,,16,31.979,0.691,-0.122,0,2.1295,0.0229,-0.0121,-0.0,0.0,0.0,78.0244369506836,3.3749992847442627,77.52174377441406,13.40000057220459,268697600,True,False,0.0,False
3.84,3454.733333343535,0,0.08167,0.0,0.0,0.0,1.0,0,1,1300.0,0.0718,3,3,65.242431640625,73.96369934082031,73.94259643554688,597.75,,16,31.979,0.691,-0.121,0,2.1295,0.023,-0.0121,0.0,-0.0,0.0,78.02687072753906,3.3749992847442627,77.52215576171875,13.40000057220459,268697600,True,False,0.0,False
3.94,3454.833333343536,0,0.08167,0.0,0.0,0.0,1.0,0,1,1300.0,0.0713,3,3,65.3424301147461,73.96369934082031,73.94259643554688,597.75,,16,31.979,0.691,-0.119,0,2.1295,0.0229,-0.0121,0.0,0.0,0.0,78.029296875,3.3749992847442627,77.52256774902344,13.40000057220459,268697600,True,False,0.0,False
4.04,3454.9333333435375,0,0.08167,0.0,0.0,0.0,1.0,0,1,1300.0,0.0713,3,3,65.44243621826172,73.96369934082031,73.94259643554688,597.75,,16,31.979,0.691,-0.115,0,2.1295,0.023,-0.0121,-0.0,0.0,0.0,78.03172302246094,3.3749992847442627,77.52297973632812,13.40000057220459,268697600,True,False,0.0,False
4.14,3455.0333333435387,0,0.08167,0.0,0.0,0.0,1.0,0,1,1300.0,0.073,3,3,65.54243469238281,73.96369934082031,73.94259643554688,597.75,,16,31.979,0.691,-0.112,0,2.1295,0.023,-0.0121,0.0,-0.0,0.0,78.03414916992188,3.3749992847442627,77.52339172363281,13.40000057220459,268697600,True,False,0.0,False
4.24,3455.13333334354,0,0.08167,0.0,0.0,0.0,1.0,0,1,1300.0,0.0711,3,3,65.6424331665039,73.96369934082031,73.94259643554688,597.75,,16,31.979,0.691,-0.127,0,2.1295,0.023,-0.0121,-0.0,-0.0,0.0,78.03657531738281,3.3749992847442627,77.5238037109375,13.40000057220459,268697600,True,False,0.0,False
4.34,3455.2333333435413,0,0.08167,0.0,0.0,0.0,1.0,0,1,1300.0,0.0728,3,3,65.742431640625,73.96369934082031,73.94259643554688,597.75,,16,31.979,0.691,-0.118,0,2.1295,0.0229,-0.0121,0.0,0.0,0.0,78.03900146484375,3.3749992847442627,77.52421569824219,13.40000057220459,268697600,True,False,0.0,False
4.44,3455.3333333435426,0,0.08167,0.0,0.0,0.0,1.0,0,1,1300.0,0.0706,3,3,65.8424301147461,73.96369934082031,73.94259643554688,597.75,,16,31.979,0.691,-0.117,0,2.1295,0.0229,-0.0121,-0.0,-0.0,0.0,78.04142761230469,3.3749992847442627,77.52462768554688,13.40000057220459,268697600,True,False,0.0,False
4.54,3455.433333343544,0,0.08167,0.0,0.0,0.151,1.0,0.392,1,1441.0,0.0311,3,3,65.94243621826172,73.96369934082031,73.94259643554688,597.75,,16,31.979,0.691,-0.145,0,2.1295,0.0229,-0.0121,0.0,-0.001,-0.0,78.04393005371094,3.3749992847442627,77.52616119384766,13.40000057220459,268697600,True,False,0.0,False
4.64,3455.533333343545,0,0.08167,0.3,1.1,0.682,0.0,0.583,1,1383.0,0.0098,3,3,66.04243469238281,73.96369934082031,73.94259643554688,597.75,,16,31.979,0.691,-0.096,0,2.1295,0.0218,-0.0121,0.297,-0.0,0.007,78.04624938964844,3.3749992847442627,77.53758239746094,13.40000057220459,268697600,True,False,0.0,False
4.74,3455.6500000102133,0,0.08169,1.01,3.6,1.0,0.0,0.603,1,1327.0,-0.0043,3,3,66.15910339355469,73.96369934082031,73.94259643554688,597.75,,16,31.978,0.691,-0.14,0,2.1295,0.0213,-0.0122,1.011,-0.0,0.006,78.04795837402344,3.3749992847442627,77.55170440673828,13.40000057220459,268697600,True,False,0.0,False
4.84,3455.7500000102145,0,0.08172,1.62,5.8,1.0,0.0,0.198,1,1203.0,-0.0081,3,3,66.25910186767578,73.96369934082031,73.94259643554688,597.75,,16,31.978,0.691,-0.116,0,2.1296,0.0214,-0.0124,1.615,0.001,0.011,78.04893493652344,3.372183322906494,77.56082916259766,13.40000057220459,268697600,True,False,0.0,False
4.95,3455.850000010216,0,0.08176,1.79,6.4,1.0,0.0,0.61,2,1328.0,-0.0005,3,3,66.35910034179688,73.96369934082031,73.94259643554688,597.75,,16,31.978,0.691,0.17,0,2.1297,0.0218,-0.013,1.789,0.002,0.03,78.04981994628906,3.3657541275024414,77.5678939819336,13.40000057220459,268697600,True,False,0.0,False
5.05,3455.950000010217,0,0.08182,2.34,8.4,1.0,0.0,0.615,2,1330.0,0.0096,3,3,66.45909881591797,73.96369934082031,73.94259643554688,597.75,,16,31.978,8.768,-0.265,0,2.1294,0.0216,-0.0127,2.343,0.005,0.012,78.05044555664062,3.3715128898620605,77.5791244506836,13.40000057220459,268697600,True,False,0.0,False
5.15,3456.0500000102184,0,0.08188,2.81,10.1,1.0,0.0,0.618,2,1331.0,0.0177,3,3,66.55909729003906,73.96369934082031,73.94259643554688,597.76,,16,31.977,8.89,-0.033,0,2.1295,0.0217,-0.0129,2.808,0.004,0.024,78.05085754394531,3.373684883117676,77.59026336669922,13.40000057220459,268697600,True,False,0.0,False
5.25,3456.1500000102196,0,0.08196,3.33,12.0,1.0,0.0,0.62,2,1311.0,0.0151,3,3,66.65910339355469,73.96369934082031,73.94259643554688,597.76,,16,31.977,8.832,-0.12,0,2.1294,0.0215,-0.0127,3.325,0.001,0.026,78.05106353759766,3.3745038509368896,77.60124206542969,13.40000057220459,268697600,True,False,0.0,False
5.35,3456.250000010221,0,0.08205,3.83,13.8,1.0,0.0,0.622,2,1267.0,0.0113,3,3,66.75910186767578,73.96369934082031,73.94259643554688,597.76,,16,31.977,8.592,-0.1,0,2.1293,0.021,-0.0126,3.834,0.003,0.03,78.05107116699219,3.3742144107818604,77.61170196533203,13.40000057220459,268697600,True,False,0.0,False
5.45,3456.350000010222,0,0.08216,4.34,15.6,1.0,0.0,0.344,2,1122.0,0.0199,3,3,66.85910034179688,73.96369934082031,73.94259643554688,597.76,,16,31.976,7.654,-0.098,0,2.1292,0.0202,-0.0124,4.335,0.002,0.032,78.0509033203125,3.3619723320007324,77.61927032470703,13.40000057220459,268697600,True,False,0.0,False
5.55,3456.4500000102234,0,0.08227,4.99,17.9,1.0,0.0,0.607,1,1159.0,0.0218,3,3,66.95909881591797,73.96369934082031,73.94259643554688,597.76,,16,31.976,8.279,0.074,0,2.1292,0.0179,-0.0128,4.986,0.019,0.03,78.0508804321289,3.362156391143799,77.6346206665039,13.40000057220459,268697600,True,False,0.0,False
5.65,3456.5500000102247,0,0.08241,5.65,20.3,1.0,0.0,0.96,1,1196.0,0.0225,3,3,67.05909729003906,73.96369934082031,73.94259643554688,597.76,,16,31.975,8.588,-0.053,0,2.1289,0.0182,-0.0124,5.651,0.0,0.045,78.05039978027344,3.366774320602417,77.64681243896484,13.40000057220459,268697600,True,False,0.0,False
5.75,3456.650000010226,0,0.08256,6.27,22.6,1.0,0.0,1.0,1,1767.0,0.0275,3,3,67.15910339355469,73.96369934082031,73.94259643554688,597.76,,16,31.975,13.252,-0.006,0,2.1288,0.0179,-0.0113,6.266,0.006,0.048,78.04972076416016,3.367371082305908,77.66055297851562,13.40000057220459,268697600,True,False,0.0,False
5.86,3456.7500000102273,0,0.08273,6.95,25.0,1.0,0.0,1.0,1,2088.0,0.0256,3,3,67.25910186767578,73.96369934082031,73.94259643554688,597.76,,16,31.974,16.055,-0.169,0,2.1287,0.0164,-0.009,6.951,-0.002,0.043,78.04879760742188,3.3721230030059814,77.67471313476562,13.40000057220459,268697600,True,False,0.0,False
5.96,3456.8500000102285,0,0.08292,7.75,27.9,1.0,0.0,1.0,1,1912.0,0.0189,3,3,67.35910034179688,73.96369934082031,73.94259643554688,597.76,,16,31.974,14.931,-0.047,0,2.1287,0.0139,-0.0078,7.745,0.006,0.052,78.04763793945312,3.373915195465088,77.69107818603516,13.40000057220459,268697600,True,False,0.0,False
6.06,3456.95000001023,0,0.08313,8.55,30.8,1.0,0.0,1.0,1,1901.0,0.0113,3,3,67.45909881591797,73.96369934082031,73.94259643554688,597.76,,16,31.973,15.23,-0.17,0,2.1287,0.0115,-0.0091,8.548,0.012,0.039,78.0462646484375,3.3745906352996826,77.71099853515625,13.40000057220459,268697600,True,False,0.0,False
6.16,3457.066666676898,0,0.0834,9.47,34.1,1.0,0.0,1.0,1,2213.0,0.0136,3,3,67.57576751708984,73.96369934082031,73.94259643554688,597.86,,16,31.973,18.447,-0.131,0,2.1286,0.0111,-0.0083,9.473,-0.001,0.018,78.04434967041016,3.374868631362915,77.73753356933594,13.40000057220459,268697600,True,False,0.0,False
6.26,3457.1666666768992,0,0.08365,10.27,37.0,1.0,0.0,1.0,1,2658.0,0.0165,3,3,67.67576599121094,73.96369934082031,73.94259643554688,597.86,,16,31.972,22.756,0.344,0,2.1281,0.0142,-0.0089,10.27,0.009,0.067,78.0424575805664,3.374950647354126,77.76349639892578,13.40000057220459,268697600,True,False,0.0,False
6.36,3457.2666666769005,0,0.08392,11.11,40.0,1.0,0.0,1.0,1,2998.0,0.0268,3,3,67.77576446533203,73.96369934082031,73.94259643554688,597.86,,16,31.971,25.949,-0.183,0,2.1278,0.017,-0.01,11.109,0.012,0.118,78.04032897949219,3.374981164932251,77.79237365722656,13.40000057220459,268697600,True,False,0.0,False
6.46,3457.366666676902,0,0.08421,12.01,43.2,1.0,0.0,1.0,1,3146.0,0.0285,3,3,67.87576293945312,73.96369934082031,73.94259643554688,597.86,,16,31.97,27.799,0.027,0,2.1278,0.018,-0.0101,12.012,0.011,0.048,78.03810119628906,3.374992847442627,77.82585906982422,13.40000057220459,268697600,True,False,0.0,False
6.56,3457.466666676903,0,0.08453,12.95,46.6,1.0,0.0,1.0,1,3304.0,0.0263,3,3,67.97576904296875,73.96369934082031,73.94259643554688,597.86,,16,31.969,29.605,-0.353,0,2.1281,0.0186,-0.0117,12.948,0.016,0.055,78.03573608398438,3.374997138977051,77.8625717163086,13.40000057220459,268697600,True,False,0.0,False
6.67,3457.5666666769043,0,0.08487,13.87,49.9,1.0,0.0,1.0,1,3585.0,0.0227,3,3,68.07576751708984,73.96369934082031,73.94259643554688,597.86,,16,31.968,32.065,0.209,0,2.1274,0.018,-0.0105,13.871,0.01,0.142,78.03326416015625,3.3973278999328613,77.90211486816406,13.40000057220459,268697600,True,False,0.0,False
6.77,3457.6666666769056,0,0.08524,14.81,53.3,1.0,0.0,1.0,1,3847.0,0.0208,3,3,68.17576599121094,73.96369934082031,73.94259643554688,597.86,,16,31.966,34.21,-0.354,0,2.127,0.0117,-0.0141,14.808,0.02,0.046,78.03086853027344,3.6065266132354736,77.94493103027344,13.40000057220459,268697600,True,False,0.0,False
6.87,3457.766666676907,0,0.08563,15.77,56.8,1.0,0.0,1.0,1,4001.0,0.0192,3,3,68.27576446533203,73.96369934082031,73.94259643554688,597.86,,16,31.965,35.485,0.333,0,2.1269,0.0079,-0.0093,15.771,0.0,-0.094,78.0284423828125,3.8565518856048584,77.98993682861328,13.40000057220459,268697600,True,False,0.0,False
6.97,3457.866666676908,0,0.08606,16.69,60.1,1.0,0.0,1.0,1,4342.0,0.0151,3,3,68.37576293945312,73.96369934082031,73.94259643554688,597.86,,16,31.964,37.865,0.045,0,2.1257,0.025,-0.0115,16.689,0.015,0.174,78.02658081054688,4.214234828948975,78.03829956054688,13.40000057220459,268697600,True,False,0.0,False
7.07,3457.9666666769094,0,0.08651,17.44,62.8,1.0,0.0,1.0,1,5420.0,0.0215,3,3,68.47576904296875,73.96369934082031,73.94259643554688,597.86,,16,31.962,43.76,0.33,0,2.1235,0.0382,-0.008,17.44,-0.012,0.202,78.02765655517578,4.386395454406738,78.091064453125,13.40000057220459,268697600,True,False,0.0,False
7.17,3458.0666666769107,0,0.08698,18.37,66.1,1.0,0.0,1.0,1,4778.0,0.0043,3,3,68.57576751708984,73.96369934082031,73.94259643554688,598.11,,16,31.961,41.019,0.643,0,2.1199,0.0352,-0.0075,18.368,-0.021,0.051,78.03019714355469,4.457154273986816,78.14250183105469,13.40000057220459,268697600,True,False,0.0,False
7.27,3458.166666676912,0,0.08749,19.3,69.5,1.0,0.0,1.0,1,4796.0,0.005,3,3,68.67576599121094,73.96369934082031,73.94259643554688,598.11,,16,31.959,41.121,0.099,0,2.1192,0.0321,-0.0073,19.302,0.006,0.094,78.03099060058594,4.483840465545654,78.19266510009766,13.40000057220459,268697600,True,False,0.0,False
7.37,3458.2666666769132,0,0.08802,19.9,71.6,1.0,0.0,1.0,1,4794.0,-0.0096,3,3,68.77576446533203,73.96369934082031,73.94259643554688,598.11,,16,31.958,41.109,-0.154,0,2.1192,0.0356,-0.0067,19.899,0.002,0.162,78.03167724609375,4.493905544281006,78.23924255371094,13.40000057220459,268697600,True,False,0.0,False
7.47,3458.3666666769145,0,0.08857,20.14,72.5,1.0,0.0,1.0,1,6107.0,-0.011,3,3,68.87576293945312,73.96369934082031,73.94259643554688,598.11,,16,31.956,46.69,-0.101,0,2.1197,0.0367,-0.0055,20.139,0.003,0.156,78.03629302978516,4.497701644897461,78.28961944580078,13.40000057220459,268697600,False,False,0.0,False
7.58,3458.466666676916,0,0.08914,21.23,76.4,1.0,0.0,1.0,1,5378.0,-0.0268,3,3,68.97576904296875,73.96369934082031,73.94259643554688,598.11,,16,31.954,44.565,-0.38,0,2.1201,0.0345,-0.0067,21.234,0.002,0.067,78.0428237915039,4.499133110046387,78.34965515136719,13.40000057220459,268697600,False,False,0.0,False
7.68,3458.583333343584,0,0.08985,22.32,80.3,1.0,0.0,1.0,1,5730.0,-0.0278,3,3,69.0924301147461,73.96369934082031,73.94259643554688,598.11,,16,31.952,46.268,-0.355,0,2.1222,0.0372,-0.0071,22.315,0.008,0.135,78.05229949951172,4.499722003936768,78.42106628417969,13.40000057220459,268697600,False,False,0.0,False
7.78,3458.683333343585,0,0.0905,23.25,83.7,1.0,0.0,1.0,1,5979.0,-0.0654,3,3,69.19243621826172,73.96369934082031,73.94259643554688,598.11,,16,31.951,47.51,-0.607,0,2.1235,0.0366,-0.006,23.25,-0.003,0.122,78.06327056884766,4.499895095825195,78.48456573486328,13.40000057220459,268697600,False,False,0.0,False
7.88,3458.7833333435865,0,0.09119,24.19,87.1,1.0,0.0,1.0,1,6187.0,-0.1008,3,3,69.29243469238281,73.96369934082031,73.94259643554688,598.11,,16,31.949,48.438,-1.012,0,2.1262,0.0358,-0.0067,24.19,-0.012,0.11,78.07621002197266,4.499960422515869,78.5494155883789,13.40000057220459,268697600,False,False,0.0,False
7.98,3458.8833333435878,0,0.09191,25.11,90.4,1.0,0.0,1.0,1,6451.0,-0.1252,3,3,69.3924331665039,73.96369934082031,73.94259643554688,598.11,,16,31.947,49.328,-1.503,0,2.1324,0.033,-0.0073,25.105,0.003,0.122,78.09190368652344,4.499985218048096,78.61602783203125,13.40000057220459,268697600,False,False,0.0,False
8.08,3458.983333343589,0,0.09266,26.02,93.7,1.0,0.0,1.0,1,6610.0,-0.2593,3,3,69.492431640625,73.96369934082031,73.94259643554688,598.11,,16,31.945,49.4,-2.704,0,2.1384,0.0316,-0.0015,26.024,-0.036,0.119,78.11043548583984,4.499994277954102,78.68309020996094,13.40000057220459,268697600,False,False,0.0,False
8.18,3459.0833333435903,0,0.09343,26.89,96.8,1.0,0.0,1.0,1,6846.0,-0.3821,3,3,69.5924301147461,73.96369934082031,73.94259643554688,598.56,,16,31.943,48.662,-4.069,0,2.1502,0.0312,0.004,26.886,-0.074,0.155,78.13162994384766,4.499998092651367,78.74852752685547,13.40000057220459,268697600,False,False,0.0,False
8.28,3459.1833333435916,0,0.09422,27.71,99.8,1.0,0.0,1.0,1,7034.0,-0.4039,3,3,69.69243621826172,73.96369934082031,73.94259643554688,598.56,,16,31.942,47.731,-5.309,0,2.1697,0.0296,0.0033,27.71,-0.033,0.137,78.15584564208984,4.499998569488525,78.81124877929688,13.40000057220459,268697600,False,False,0.0,False
8.38,3459.283333343593,0,0.09504,28.48,102.5,1.0,0.0,1.0,1,7160.0,-0.4453,3,3,69.79243469238281,73.96369934082031,73.94259643554688,598.56,,16,31.94,46.994,-6.336,0,2.1911,0.0316,0.0053,28.477,-0.002,0.183,78.18244934082031,4.499998569488525,78.86856079101562,13.40000057220459,268697600,False,False,0.0,False
8.49,3459.383333343594,0,0.09586,28.73,103.4,1.0,0.0,1.0,2,6267.0,-0.4573,3,3,69.8924331665039,73.96369934082031,73.94259643554688,598.56,,16,31.938,48.68,-6.505,0,2.2149,0.0347,0.0114,28.728,-0.017,0.217,78.19453430175781,4.499998569488525,78.85595703125,13.40000057220459,268697600,False,False,0.0,False
8.59,3459.4833333435954,0,0.0967,29.51,106.2,1.0,0.0,1.0,2,5890.0,-0.431,3,3,69.992431640625,73.96369934082031,73.94259643554688,598.56,,16,31.936,48.103,-7.316,0,2.242,0.0317,0.0119,29.508,0.089,0.106,78.2010498046875,4.499998569488525,78.91482543945312,13.40000057220459,268697600,False,False,0.0,False
8.69,3459.5833333435967,0,0.09756,30.22,108.8,1.0,0.0,1.0,2,5958.0,-0.431,3,3,70.0924301147461,73.96369934082031,73.94259643554688,598.56,,16,31.935,48.254,-7.002,0,2.2664,0.0338,0.0147,30.224,0.05,0.185,78.20852661132812,4.499998569488525,78.97383880615234,13.40000057220459,268697600,False,False,0.0,False
8.79,3459.683333343598,0,0.09843,30.92,111.3,1.0,0.0,1.0,2,6083.0,-0.4549,3,3,70.19243621826172,73.96369934082031,73.94259643554688,598.56,,16,31.933,48.478,-7.678,0,2.2909,0.0343,0.0167,30.924,0.054,0.172,78.21762084960938,4.499998569488525,79.03314208984375,13.40000057220459,268697600,False,False,0.0,False
8.89,3459.783333343599,0,0.09931,31.62,113.8,1.0,0.0,1.0,2,6184.0,-0.5148,3,3,70.29243469238281,73.96369934082031,73.94259643554688,598.56,,16,31.931,48.808,-8.817,0,2.3171,0.0345,0.0185,31.616,0.053,0.155,78.2280044555664,4.499998569488525,79.09241485595703,13.40000057220459,268697600,False,False,0.0,False
8.99,3459.8833333436005,0,0.1002,32.27,116.2,1.0,0.0,1.0,2,6399.0,-0.5789,3,3,70.3924331665039,73.96369934082031,73.94259643554688,598.56,,16,31.929,49.434,-8.411,0,2.3457,0.0413,0.0247,32.273,0.124,0.237,78.24037170410156,4.499998569488525,79.15242004394531,13.40000057220459,268697600,False,False,0.0,False
9.09,3459.9833333436018,0,0.10111,32.93,118.5,1.0,0.0,1.0,2,6498.0,-0.5722,3,3,70.492431640625,73.96369934082031,73.94259643554688,598.56,,16,31.927,49.661,-10.593,0,2.3797,0.0474,0.0269,32.929,0.322,0.209,78.25492858886719,4.499998569488525,79.21286010742188,13.40000057220459,268697600,False,False,0.0,False
9.19,3460.083333343603,0,0.10204,33.59,120.9,1.0,0.0,1.0,2,6611.0,-0.548,3,3,70.5924301147461,73.96369934082031,73.94259643554688,599.19,,16,31.926,49.526,-13.937,0,2.4198,0.0469,0.0256,33.584,0.412,0.16,78.27096557617188,4.499998569488525,79.27276611328125,13.40000057220459,268697600,False,False,0.0,False
9.29,3460.200000010271,0,0.10314,34.33,123.6,1.0,0.0,1.0,2,6700.0,-0.5861,3,3,70.70909881591797,73.96369934082031,73.94259643554688,599.19,,16,31.923,49.241,-15.586,0,2.464,0.0418,0.0236,34.33,0.19,0.192,78.29058837890625,4.499998569488525,79.34133911132812,13.40000057220459,268697600,False,False,0.0,False
9.4,3460.3000000102725,0,0.10411,34.96,125.9,0.943,0.0,1.0,2,6765.0,-0.6263,3,3,70.80909729003906,73.96369934082031,73.94259643554688,599.19,,16,31.922,48.642,-11.275,0,2.4967,0.0375,0.0297,34.962,0.052,0.107,78.30856323242188,4.499998569488525,79.39845275878906,13.40000057220459,268697600,False,False,0.0,False
9.5,3460.4000000102737,0,0.10509,35.51,127.8,0.933,0.0,1.0,2,6998.0,-0.6302,3,3,70.90910339355469,73.96369934082031,73.94259643554688,599.19,,16,31.92,47.448,-13.307,0,2.5384,0.0372,0.0287,35.507,0.308,0.147,78.32923889160156,4.499998569488525,79.45231628417969,13.40000057220459,268697600,False,False,0.0,False
9.6,3460.500000010275,0,0.10609,36.08,129.9,0.933,0.0,1.0,2,7006.0,-0.5509,3,3,71.00910186767578,73.96369934082031,73.94259643554688,599.19,,16,31.918,47.244,-15.524,0,2.5772,0.031,0.0315,36.077,0.114,0.151,78.35035705566406,4.499998569488525,79.5047607421875,13.40000057220459,268697600,False,False,0.0,False
9.7,3460.6000000102763,0,0.10711,36.62,131.8,0.933,0.0,1.0,2,7110.0,-0.5703,3,3,71.10910034179688,73.96369934082031,73.94259643554688,599.19,,16,31.916,46.642,-11.247,0,2.61,0.026,0.0321,36.617,0.039,0.155,78.37286376953125,4.499998569488525,79.5551986694336,13.40000057220459,268697600,False,False,0.0,False
9.8,3460.7000000102776,0,0.10816,37.09,133.5,0.932,0.0,1.0,2,7175.0,-0.7369,3,3,71.20909881591797,73.96369934082031,73.94259643554688,599.19,,16,31.915,46.139,-15.246,0,2.6479,0.0233,0.0258,37.089,0.113,0.17,78.39659118652344,4.499998569488525,79.59930419921875,13.40000057220459,268697600,False,False,0.0,False
9.9,3460.800000010279,0,0.10923,37.19,133.9,0.889,0.0,1.0,3,6311.0,-0.8614,3,3,71.30909729003906,73.96369934082031,73.94259643554688,599.19,,16,31.913,47.13,-18.754,0,2.695,0.0221,0.0215,37.188,0.177,0.261,78.41021728515625,4.499998569488525,79.5803451538086,13.40000057220459,268697600,False,False,0.0,False
10.02,3460.916666676947,0,0.1105,37.67,135.6,0.677,0.0,1.0,3,5875.0,-0.9393,3,3,71.42576599121094,73.96369934082031,73.94259643554688,599.19,,16,31.911,39.187,-25.213,0,2.7674,0.0104,0.0155,37.666,0.413,0.17,78.41641235351562,4.499998569488525,79.62825775146484,13.40000057220459,268697600,False,False,0.0,False
10.12,3461.0166666769483,0,0.11162,37.94,136.6,0.616,0.0,1.0,3,5945.0,-0.9069,3,3,71.52576446533203,73.96369934082031,73.94259643554688,599.19,,16,31.91,36.083,-19.591,0,2.8257,-0.0006,0.0188,37.938,0.267,0.094,78.42179870605469,4.499998569488525,79.65467834472656,13.40000057220459,268697600,False,False,0.0,False
10.22,3461.1166666769495,0,0.11279,38.17,137.4,0.612,0.0,1.0,3,6024.0,-0.8416,3,3,71.62576293945312,73.96369934082031,73.94259643554688,599.97,,16,31.908,35.748,-18.377,0,2.8843,-0.0064,0.0192,38.17,0.537,0.08,78.42816925048828,4.499998569488525,79.67842864990234,13.40000057220459,268697600,False,False,0.0,False
10.32,3461.216666676951,0,0.11396,38.41,138.3,0.621,0.0,1.0,3,6047.0,-0.6847,3,3,71.72576904296875,73.96369934082031,73.94259643554688,599.97,,16,31.907,36.02,-17.649,0,2.9325,-0.0082,0.0222,38.406,0.402,0.194,78.43456268310547,4.499998569488525,79.70185852050781,13.40000057220459,268697600,False,False,0.0,False
10.43,3461.316666676952,0,0.11511,38.67,139.2,0.627,0.0,1.0,3,6086.0,-0.5571,3,3,71.82576751708984,73.96369934082031,73.94259643554688,599.97,,16,31.906,36.212,-14.442,0,2.9742,-0.0086,0.0256,38.663,0.392,0.202,78.44145202636719,4.499998569488525,79.72591400146484,13.40000057220459,268697600,False,False,0.0,False
10.53,3461.4333333436202,0,0.11644,38.97,140.3,0.626,0.0,1.0,3,6147.0,-0.4939,3,3,71.94243621826172,73.96369934082031,73.94259643554688,599.97,,16,31.904,35.992,-13.843,0,3.0145,-0.0055,0.026,38.967,0.354,0.244,78.45003509521484,4.499998569488525,79.75315856933594,13.40000057220459,268697600,False,False,0.0,False
10.63,3461.5333333436215,0,0.11757,39.23,141.2,0.591,0.0,1.0,3,6147.0,-0.4065,3,3,72.04243469238281,73.96369934082031,73.94259643554688,599.97,,16,31.903,34.037,-12.728,0,3.0477,-0.0077,0.0231,39.224,0.292,0.181,78.45769500732422,4.499998569488525,79.77392578125,13.40000057220459,268697600,False,False,0.0,False
10.73,3461.633333343623,0,0.1187,39.44,142.0,0.566,0.0,1.0,3,6185.0,-0.412,3,3,72.1424331665039,73.96369934082031,73.94259643554688,599.97,,16,31.902,32.502,-11.09,0,3.0757,-0.0126,0.0212,39.444,0.131,0.17,78.46556091308594,4.499998569488525,79.7889633178711,13.40000057220459,268697600,False,False,0.0,False
10.83,3461.733333343624,0,0.11982,39.65,142.7,0.581,0.0,1.0,3,6220.0,-0.4755,3,3,72.242431640625,73.96369934082031,73.94259643554688,599.97,,16,31.9,33.181,-11.563,0,3.1029,-0.0181,0.0241,39.652,0.021,0.169,78.47370910644531,4.499998569488525,79.80321502685547,13.40000057220459,268697600,False,False,0.0,False
10.93,3461.8333333436253,0,0.12094,39.93,143.7,0.858,0.0,1.0,3,6302.0,-0.5253,3,3,72.3424301147461,73.96369934082031,73.94259643554688,599.97,,16,31.899,45.058,-12.659,0,3.1354,-0.0224,0.0272,39.928,0.097,0.16,78.4828872680664,4.499998569488525,79.83352661132812,13.40000057220459,268697600,False,False,0.0,False
11.03,3461.9333333436266,0,0.12206,40.33,145.2,1.0,0.0,1.0,3,6363.0,-0.5456,3,3,72.44243621826172,73.96369934082031,73.94259643554688,599.97,,16,31.897,48.895,-13.386,0,3.1711,-0.0245,0.0231,40.325,0.229,0.165,78.4928207397461,4.499998569488525,79.88328552246094,13.40000057220459,268697600,False,False,0.0,False
11.13,3462.033333343628,0,0.12318,40.73,146.6,1.0,0.0,1.0,3,6419.0,-0.5251,3,3,72.54243469238281,73.96369934082031,73.94259643554688,599.97,,16,31.895,49.563,-15.526,0,3.2104,-0.0308,0.0145,40.731,0.281,0.118,78.50349426269531,4.499998569488525,79.93601989746094,13.40000057220459,268697600,False,False,0.0,False
11.23,3462.133333343629,0,0.1243,41.14,148.1,1.0,0.0,1.0,3,6485.0,-0.4199,3,3,72.6424331665039,73.96369934082031,73.94259643554688,600.82,,16,31.893,49.693,-13.466,0,3.2443,-0.0341,0.0049,41.136,0.216,0.213,78.5147476196289,4.499998569488525,79.98909759521484,13.40000057220459,268697600,False,False,0.0,False
11.33,3462.2333333436304,0,0.12542,41.54,149.5,1.0,0.0,1.0,3,6558.0,-0.3886,3,3,72.742431640625,73.96369934082031,73.94259643554688,600.82,,16,31.892,49.657,-13.586,0,3.2751,-0.0424,-0.0065,41.539,0.22,0.127,78.52684020996094,4.499998569488525,80.0418701171875,13.40000057220459,268697600,False,False,0.0,False
11.44,3462.3333333436317,0,0.12656,41.93,151.0,1.0,0.0,1.0,3,6578.0,-0.3828,3,3,72.8424301147461,73.96369934082031,73.94259643554688,600.82,,16,31.89,49.614,-11.972,0,3.3025,-0.0568,-0.005,41.933,0.013,0.1,78.539306640625,4.499998569488525,80.09412384033203,13.40000057220459,268697600,False,False,0.0,False
11.54,3462.433333343633,0,0.12771,42.31,152.3,1.0,0.0,1.0,3,6633.0,-0.3759,3,3,72.94243621826172,73.96369934082031,73.94259643554688,600.82,,16,31.888,49.472,-9.834,0,3.3275,-0.071,-0.0031,42.307,-0.037,0.1,78.55233764648438,4.499998569488525,80.1457748413086,13.40000057220459,268697600,False,False,0.0,False
11.64,3462.5333333436342,0,0.12887,42.65,153.6,1.0,0.0,1.0,3,6716.0,-0.363,3,3,73.04243469238281,73.96369934082031,73.94259643554688,600.82,,16,31.886,49.202,-7.79,0,3.3514,-0.0743,-0.0003,42.654,0.059,0.215,78.5662612915039,4.499998569488525,80.1965560913086,13.40000057220459,268697600,False,False,0.0,False
11.74,3462.6333333436355,0,0.13004,42.98,154.7,1.0,0.0,1.0,3,6838.0,-0.3522,3,3,73.1424331665039,73.96369934082031,73.94259643554688,600.82,,16,31.884,48.729,-9.989,0,3.3773,-0.0751,-0.001,42.98,0.251,0.211,78.5815200805664,4.499998569488525,80.24613189697266,13.40000057220459,268697600,False,False,0.0,False
11.84,3462.733333343637,0,0.13121,43.32,156.0,1.0,0.0,1.0,3,6802.0,-0.362,3,3,73.242431640625,73.96369934082031,73.94259643554688,600.82,,16,31.882,48.766,-11.839,0,3.402,-0.0888,0.0011,43.322,0.006,0.082,78.59679412841797,4.499998569488525,80.2950668334961,13.40000057220459,268697600,False,False,0.0,False
11.94,3462.833333343638,0,0.13239,43.63,157.1,1.0,0.0,1.0,3,6834.0,-0.3558,3,3,73.3424301147461,73.96369934082031,73.94259643554688,600.82,,16,31.881,48.532,-9.133,0,3.4253,-0.0961,0.0027,43.63,0.009,0.179,78.6125717163086,4.499998569488525,80.34312438964844,13.40000057220459,268697600,False,False,0.0,False
12.04,3462.9333333436393,0,0.13357,43.92,158.1,1.0,0.0,1.0,3,6899.0,-0.3431,3,3,73.44243621826172,73.96369934082031,73.94259643554688,600.82,,16,31.879,48.149,-9.937,0,3.45,-0.0985,0.004,43.921,0.171,0.176,78.62948608398438,4.499998569488525,80.38981628417969,13.40000057220459,268697600,False,False,0.0,False
12.14,3463.0333333436406,0,0.13475,44.2,159.1,1.0,0.0,1.0,3,6947.0,-0.4463,3,3,73.54243469238281,73.96369934082031,73.94259643554688,600.82,,16,31.877,47.826,-12.159,0,3.4747,-0.101,0.0047,44.198,0.147,0.179,78.64691162109375,4.499998569488525,80.43547058105469,13.40000057220459,268697600,False,False,0.0,False
12.24,3463.1500000103088,0,0.13612,44.49,160.2,1.0,0.0,1.0,3,6998.0,-0.5365,3,3,73.65910339355469,73.96369934082031,73.94259643554688,601.68,,16,31.875,47.454,-13.282,0,3.5127,-0.1015,0.0066,44.492,0.29,0.208,78.66814422607422,4.499998569488525,80.48729705810547,13.40000057220459,268697600,False,False,0.0,False
12.34,3463.25000001031,0,0.1373,44.57,160.5,1.0,0.0,1.0,4,6035.0,-0.4113,3,3,73.75910186767578,73.96369934082031,73.94259643554688,601.68,,16,31.873,48.34,-14.46,0,3.5497,-0.1008,0.0094,44.568,0.498,0.192,78.6812515258789,4.499998569488525,80.47504425048828,13.40000057220459,268697600,False,False,0.0,False
12.45,3463.3500000103113,0,0.13847,44.69,160.9,1.0,0.0,1.0,4,5987.0,-0.328,3,3,73.85910034179688,73.96369934082031,73.94259643554688,601.68,,16,31.871,48.265,-11.856,0,3.5783,-0.0945,0.0073,44.688,0.508,0.325,78.68453216552734,4.499998569488525,80.51333618164062,13.40000057220459,268697600,False,False,0.0,False
12.55,3463.4500000103126,0,0.13964,44.94,161.8,1.0,0.0,1.0,4,5866.0,-0.3512,3,3,73.95909881591797,73.96369934082031,73.94259643554688,601.68,,16,31.87,47.819,-14.216,0,3.607,-0.0976,0.0052,44.938,0.455,0.155,78.68672180175781,4.499998569488525,80.55962371826172,13.40000057220459,268697600,False,False,0.0,False
12.65,3463.550000010314,0,0.14082,45.17,162.6,1.0,0.0,1.0,4,5910.0,-0.3402,3,3,74.05909729003906,73.96369934082031,73.94259643554688,601.68,,16,31.868,47.912,-10.515,0,3.6315,-0.0985,0.0078,45.172,0.269,0.184,78.68904113769531,4.499998569488525,80.60565948486328,13.40000057220459,268697600,False,False,0.0,False
12.75,3463.650000010315,0,0.142,45.4,163.5,1.0,0.0,1.0,4,5961.0,-0.3019,3,3,74.15910339355469,73.96369934082031,73.94259643554688,601.68,,16,31.866,48.039,-10.116,0,3.655,-0.0951,0.0066,45.403,0.327,0.223,78.69181060791016,4.499998569488525,80.651611328125,13.40000057220459,268697600,False,False,0.0,False
12.85,3463.7500000103164,0,0.14319,45.65,164.3,1.0,0.0,1.0,4,5956.0,-0.215,3,3,74.25910186767578,73.96369934082031,73.94259643554688,601.68,,16,31.864,47.991,-9.289,0,3.6768,-0.0979,0.0055,45.645,0.253,0.157,78.69469451904297,4.499998569488525,80.69734191894531,13.40000057220459,268697600,False,False,0.0,False
12.95,3463.8500000103177,0,0.14438,45.88,165.2,1.0,0.0,1.0,4,6022.0,-0.1978,3,3,74.35910034179688,73.96369934082031,73.94259643554688,601.68,,16,31.863,48.14,-5.947,0,3.6903,-0.0932,0.0072,45.875,0.153,0.291,78.69792175292969,4.499998569488525,80.7429428100586,13.40000057220459,268697600,False,False,0.0,False
13.05,3463.950000010319,0,0.14558,46.12,166.0,1.0,0.0,1.0,4,6040.0,-0.2088,3,3,74.45909881591797,73.96369934082031,73.94259643554688,601.68,,16,31.861,48.158,-7.064,0,3.7054,-0.0919,0.0065,46.117,0.182,0.213,78.70152282714844,4.499998569488525,80.78839111328125,13.40000057220459,268697600,False,False,0.0,False
13.15,3464.05000001032,0,0.14679,46.36,166.9,1.0,0.0,1.0,4,6051.0,-0.204,3,3,74.55909729003906,73.96369934082031,73.94259643554688,601.68,,16,31.859,48.212,-7.528,0,3.721,-0.0937,0.0078,46.356,0.161,0.173,78.70536804199219,4.499998569488525,80.83369445800781,13.40000057220459,268697600,False,False,0.0,False
13.25,3464.1500000103215,0,0.148,46.58,167.7,1.0,0.0,1.0,4,6090.0,-0.2658,3,3,74.65910339355469,73.96369934082031,73.94259643554688,602.57,,16,31.857,48.345,-7.849,0,3.7363,-0.0948,0.0076,46.585,0.107,0.214,78.70942687988281,4.499998569488525,80.87895965576172,13.40000057220459,268697600,False,False,0.0,False
13.36,3464.2500000103228,0,0.1492,46.81,168.5,1.0,0.0,1.0,4,6130.0,-0.3256,3,3,74.75910186767578,73.96369934082031,73.94259643554688,602.57,,16,31.855,48.58,-9.366,0,3.7562,-0.0925,0.0099,46.808,0.189,0.242,78.71392059326172,4.499998569488525,80.92437744140625,13.40000057220459,268697600,False,False,0.0,False
13.46,3464.350000010324,0,0.15041,47.03,169.3,1.0,0.0,1.0,4,6149.0,-0.3168,3,3,74.85910034179688,73.96369934082031,73.94259643554688,602.57,,16,31.854,48.782,-11.856,0,3.7809,-0.0935,0.0118,47.033,0.278,0.188,78.71878051757812,4.499998569488525,80.97006225585938,13.40000057220459,268697600,False,False,0.0,False
13.56,3464.4500000103253,0,0.15162,47.25,170.1,1.0,0.0,1.0,4,6169.0,-0.3187,3,3,74.95909881591797,73.96369934082031,73.94259643554688,602.57,,16,31.852,48.911,-10.785,0,3.8036,-0.0951,0.0022,47.253,0.215,0.202,78.72379302978516,4.499998569488525,81.015869140625,13.40000057220459,268697600,False,False,0.0,False
13.66,3464.5500000103266,0,0.15282,47.47,170.9,1.0,0.0,1.0,4,6231.0,-0.3306,3,3,75.05909729003906,73.96369934082031,73.94259643554688,602.57,,16,31.85,49.186,-11.225,0,3.8294,-0.094,-0.0044,47.467,0.395,0.181,78.72940826416016,4.499998569488525,81.06185150146484,13.40000057220459,268697600,False,False,0.0,False
13.76,3464.650000010328,0,0.15403,47.69,171.7,1.0,0.0,1.0,4,6233.0,-0.271,3,3,75.15910339355469,73.96369934082031,73.94259643554688,602.57,,16,31.848,49.307,-10.645,0,3.8514,-0.0902,0.0029,47.687,0.324,0.255,78.73512268066406,4.499998569488525,81.1080322265625,13.40000057220459,268697600,False,False,0.0,False
13.86,3464.766666676996,0,0.15542,47.95,172.6,1.0,0.0,1.0,4,6281.0,-0.2045,3,3,75.27576446533203,73.96369934082031,73.94259643554688,602.57,,16,31.846,49.461,-9.835,0,3.8749,-0.0897,0.0058,47.946,0.33,0.165,78.742431640625,4.499998569488525,81.16197204589844,13.40000057220459,268697600,False,False,0.0,False
13.96,3464.8666666769973,0,0.1566,48.17,173.4,1.0,0.0,1.0,4,6281.0,-0.1772,3,3,75.37576293945312,73.96369934082031,73.94259643554688,602.57,,16,31.844,49.499,-6.765,0,3.8888,-0.091,0.0081,48.173,0.154,0.176,78.74871063232422,4.499998569488525,81.20812225341797,13.40000057220459,268697600,False,False,0.0,False
14.06,3464.9666666769986,0,0.15778,48.39,174.2,1.0,0.0,1.0,4,6331.0,-0.1573,3,3,75.47576904296875,73.96369934082031,73.94259643554688,602.57,,16,31.842,49.556,-5.266,0,3.9007,-0.0873,0.0074,48.392,0.151,0.24,78.75541687011719,4.499998569488525,81.25411224365234,13.40000057220459,268697600,False,False,0.0,False
14.16,3465.066666677,0,0.15895,48.61,175.0,1.0,0.0,1.0,4,6366.0,-0.1307,3,3,75.57576751708984,73.96369934082031,73.94259643554688,602.57,,16,31.841,49.61,-5.584,0,3.9126,-0.0841,0.0043,48.615,0.19,0.236,78.76261901855469,4.499998569488525,81.29995727539062,13.40000057220459,268697600,False,False,0.0,False
14.26,3465.166666677001,0,0.16013,48.84,175.8,1.0,0.0,1.0,4,6375.0,-0.0163,3,3,75.67576599121094,73.96369934082031,73.94259643554688,603.47,,16,31.839,49.631,-2.322,0,3.9207,-0.0835,0.0029,48.84,0.12,0.232,78.76990509033203,4.499998569488525,81.34562683105469,13.40000057220459,268697600,False,False,0.0,False
14.37,3465.2666666770024,0,0.16131,49.06,176.6,1.0,0.0,1.0,4,6408.0,0.0433,3,3,75.77576446533203,73.96369934082031,73.94259643554688,603.47,,16,31.837,49.673,0.338,0,3.9208,-0.0807,0.0036,49.064,0.033,0.214,78.7777328491211,4.499998569488525,81.39107513427734,13.40000057220459,268697600,False,False,0.0,False
14.47,3465.3666666770036,0,0.1625,49.29,177.4,1.0,0.0,1.0,4,6439.0,0.1504,3,3,75.87576293945312,73.96369934082031,73.94259643554688,603.47,,16,31.835,49.675,3.766,0,3.9156,-0.0792,0.003,49.288,-0.025,0.216,78.78581237792969,4.499998569488525,81.43631744384766,13.40000057220459,268697600,False,False,0.0,False
14.57,3465.466666677005,0,0.1637,49.51,178.2,1.0,0.0,1.0,4,6467.0,0.1719,3,3,75.97576904296875,73.96369934082031,73.94259643554688,603.47,,16,31.833,49.676,5.451,0,3.9041,-0.0786,0.0019,49.507,-0.105,0.205,78.79415130615234,4.499998569488525,81.4813232421875,13.40000057220459,268697600,False,False,0.0,False
14.67,3465.566666677006,0,0.16491,49.72,179.0,1.0,0.0,1.0,4,6501.0,0.2215,3,3,76.07576751708984,73.96369934082031,73.94259643554688,603.47,,16,31.831,49.683,6.301,0,3.891,-0.074,0.0016,49.72,-0.171,0.247,78.80293273925781,4.499998569488525,81.52605438232422,13.40000057220459,268697600,False,False,0.0,False
14.77,3465.6666666770075,0,0.16613,49.93,179.8,1.0,0.0,1.0,4,6533.0,0.2935,3,3,76.17576599121094,73.96369934082031,73.94259643554688,603.47,,16,31.83,49.644,10.067,0,3.8719,-0.0715,0.0023,49.932,-0.313,0.182,78.8122329711914,4.499998569488525,81.57044219970703,13.40000057220459,268697600,False,False,0.0,False
14.87,3465.7666666770087,0,0.16735,50.14,180.5,1.0,0.0,1.0,4,6555.0,0.3072,3,3,76.27576446533203,73.96369934082031,73.94259643554688,603.47,,16,31.828,49.602,10.842,0,3.8492,-0.0678,0.0038,50.134,-0.357,0.25,78.82168579101562,4.499998569488525,81.61453247070312,13.40000057220459,268697600,False,False,0.0,False
14.97,3465.86666667701,0,0.16859,50.33,181.2,1.0,0.0,1.0,4,6597.0,0.2612,3,3,76.37576293945312,73.96369934082031,73.94259643554688,603.47,,16,31.826,49.519,12.103,0,3.8244,-0.0642,0.0037,50.332,-0.505,0.232,78.83171844482422,4.499998569488525,81.65814208984375,13.40000057220459,268697600,False,False,0.010256074368953705,True
15.07,3465.9666666770113,0,0.16982,50.54,181.9,1.0,0.0,1.0,4,6603.0,0.2279,3,3,76.47576904296875,73.96369934082031,73.94259643554688,603.47,,16,31.824,49.469,10.371,0,3.8039,-0.0626,-0.0026,50.536,-0.351,0.235,78.8418197631836,4.499998569488525,81.70140075683594,13.40000057220459,268697600,False,False,0.02756751887500286,True
15.17,3466.0666666770126,0,0.17106,50.74,182.6,1.0,0.0,1.0,4,6658.0,0.2064,3,3,76.57576751708984,73.96369934082031,73.94259643554688,603.47,,16,31.822,49.287,7.604,0,3.7879,-0.0549,-0.009,50.734,-0.323,0.306,78.85242462158203,4.499998569488525,81.74407958984375,13.40000057220459,268697600,False,False,0.04433564096689224,True
15.27,3466.166666677014,0,0.17231,50.94,183.4,1.0,0.0,1.0,4,6680.0,0.1856,3,3,76.67576599121094,73.96369934082031,73.94259643554688,604.36,,16,31.82,49.169,7.46,0,3.7722,-0.0468,-0.0137,50.943,-0.37,0.29,78.86348724365234,4.499998569488525,81.78614807128906,13.40000057220459,268697600,False,False,0.060607776045799255,True
15.38,3466.283333343682,0,0.17377,51.19,184.3,1.0,0.0,1.0,4,6720.0,0.1652,3,3,76.79243469238281,73.96369934082031,73.94259643554688,604.36,,16,31.818,48.979,7.703,0,3.7542,-0.0372,-0.0135,51.186,-0.428,0.277,78.87700653076172,4.499998569488525,81.83438110351562,13.40000057220459,268697600,False,False,0.07903056591749191,True
15.48,3466.3833333436833,0,0.17503,51.4,185.1,1.0,0.0,1.0,4,6733.0,0.1554,3,3,76.8924331665039,73.96369934082031,73.94259643554688,604.36,,16,31.816,48.869,7.628,0,3.7405,-0.0311,-0.017,51.402,-0.34,0.283,78.88876342773438,4.499998569488525,81.87516021728516,13.40000057220459,268697600,False,False,0.09440544992685318,True
15.58,3466.4833333436845,0,0.17629,51.62,185.8,1.0,0.0,1.0,4,6757.0,0.1779,3,3,76.992431640625,73.96369934082031,73.94259643554688,604.36,,16,31.815,48.727,6.836,0,3.7281,-0.0261,-0.0191,51.618,-0.247,0.272,78.9007797241211,4.499998569488525,81.91534423828125,13.40000057220459,268697600,False,False,0.10941501706838608,True
15.68,3466.583333343686,0,0.17756,51.83,186.6,1.0,0.0,1.0,4,6788.0,0.2277,3,3,77.0924301147461,73.96369934082031,73.94259643554688,604.36,,16,31.813,48.564,7.211,0,3.714,-0.0198,-0.0204,51.832,-0.266,0.269,78.91320037841797,4.499998569488525,81.95487213134766,13.40000057220459,268697600,False,False,0.1240784227848053,True
15.78,3466.683333343687,0,0.17884,52.05,187.4,0.955,0.0,1.0,4,6813.0,0.2619,3,3,77.19243621826172,73.96369934082031,73.94259643554688,604.36,,16,31.811,48.188,9.972,0,3.6947,-0.0143,-0.0197,52.045,-0.394,0.24,78.92607879638672,4.499998569488525,81.9935531616211,13.40000057220459,268697600,False,False,0.1384158730506897,True
15.88,3466.7833333436884,0,0.18011,52.24,188.1,0.767,0.0,1.0,4,6809.0,0.2722,3,3,77.29243469238281,73.96369934082031,73.94259643554688,604.36,,16,31.809,43.354,11.134,0,3.6731,-0.0116,-0.0202,52.235,-0.4,0.212,78.93887329101562,4.499998569488525,82.02571105957031,13.40000057220459,268697600,False,False,0.1524350792169571,True
15.98,3466.8833333436896,0,0.18139,52.35,188.5,0.634,0.0,1.0,4,6826.0,0.3055,3,3,77.3924331665039,73.96369934082031,73.94259643554688,604.36,,16,31.808,36.828,10.984,0,3.6521,-0.0037,-0.0211,52.347,-0.427,0.321,78.95177459716797,4.499998569488525,82.04175567626953,13.40000057220459,268697600,False,False,0.16627633571624756,True
16.08,3466.983333343691,0,0.18267,52.41,188.7,0.608,0.0,1.0,4,6838.0,0.3912,3,3,77.492431640625,73.96369934082031,73.94259643554688,604.36,,16,31.807,35.117,14.616,0,3.625,0.0013,-0.0272,52.407,-0.576,0.271,78.9649658203125,4.499998569488525,82.04763793945312,13.40000057220459,268697600,False,False,0.18007822334766388,True
16.18,3467.083333343692,0,0.18396,52.45,188.8,0.6,0.0,1.0,4,6840.0,0.4413,3,3,77.5924301147461,73.96369934082031,73.94259643554688,604.36,,16,31.805,34.378,18.558,0,3.5905,0.0012,-0.0277,52.444,-0.674,0.192,78.9781723022461,4.499998569488525,82.05160522460938,13.40000057220459,268697600,False,False,0.19381803274154663,True
16.28,3467.1833333436934,0,0.18524,52.47,188.9,0.592,0.0,1.0,4,6842.0,0.4077,3,3,77.69243621826172,73.96369934082031,73.94259643554688,605.32,,16,31.804,33.664,16.959,0,3.5563,0.0018,-0.0271,52.47,-0.592,0.253,78.99127960205078,4.499998569488525,82.05403137207031,13.40000057220459,268697600,False,False,0.20744355022907257,True
16.39,3467.2833333436947,0,0.18653,52.5,189.0,0.542,0.0,1.0,4,6832.0,0.333,3,3,77.79243469238281,73.96369934082031,73.94259643554688,605.32,,16,31.803,30.693,15.397,0,3.5246,0.005,-0.0282,52.492,-0.653,0.271,79.00444793701172,4.499998569488525,82.05249786376953,13.40000057220459,268697600,False,False,0.22026413679122925,True
16.49,3467.383333343696,0,0.18781,52.31,188.3,0.108,0.108,1.0,4,6708.0,0.2253,3,3,77.8924331665039,73.96369934082031,73.94259643554688,605.32,,16,31.802,5.339,14.22,0,3.4976,0.0035,-0.024,52.309,-0.491,0.226,79.0163345336914,4.499998569488525,82.01457977294922,13.40000057220459,268697600,False,False,0.23133006691932678,True
16.59,3467.4833333436973,0,0.18909,51.48,185.3,0.0,0.331,1.0,4,6603.0,0.0725,3,3,77.992431640625,73.96369934082031,73.94259643554688,605.32,,16,31.802,0.97,6.176,0,3.483,0.0032,-0.0212,51.483,-0.222,0.357,79.0264892578125,4.499998569488525,81.93766784667969,13.40000057220459,268697600,False,False,0.24118292331695557,True
16.69,3467.5833333436985,0,0.19034,50.19,180.7,0.0,0.453,1.0,4,6397.0,0.0546,3,3,78.0924301147461,73.96369934082031,73.94259643554688,605.32,,16,31.802,0.956,2.293,0,3.4793,0.0035,-0.0229,50.194,-0.06,0.405,79.0346450805664,4.499998569488525,81.86336517333984,13.40000057220459,268697600,False,False,0.25100162625312805,True
16.79,3467.6833333437,0,0.19155,48.64,175.1,0.0,0.509,1.0,4,6198.0,0.0357,3,3,78.19243621826172,73.96369934082031,73.94259643554688,605.32,,16,31.802,0.942,1.713,0,3.4741,0.0051,-0.0219,48.642,-0.063,0.463,79.04058074951172,4.499998569488525,81.79232788085938,13.40000057220459,268697600,False,False,0.26165932416915894,True
16.89,3467.783333343701,0,0.19273,47.01,169.2,0.0,0.502,1.0,4,6001.0,-0.131,3,3,78.29243469238281,73.96369934082031,73.94259643554688,605.32,,16,31.802,0.926,-2.29,0,3.4749,0.0035,-0.0223,47.006,-0.021,0.435,79.0440673828125,4.499998569488525,81.72492980957031,13.40000057220459,268697600,False,False,0.2733513116836548,True
16.99,3467.8833333437024,0,0.19387,45.44,163.6,0.0,0.464,1.0,4,5789.0,-0.1738,3,3,78.3924331665039,73.96369934082031,73.94259643554688,605.32,,16,31.802,0.908,-5.516,0,3.4869,0.002,-0.0192,45.445,0.149,0.424,79.04553985595703,4.499998569488525,81.66090393066406,13.40000057220459,268697600,False,False,0.28629419207572937,True
17.09,3467.9833333437036,0,0.19497,44.0,158.4,0.0,0.405,1.0,4,5601.0,-0.2591,3,3,78.492431640625,73.96369934082031,73.94259643554688,605.32,,16,31.802,0.892,-8.325,0,3.5039,0.0021,-0.0205,43.996,0.238,0.411,79.04513549804688,4.499998569488525,81.60005950927734,13.40000057220459,268697600,False,False,0.30056676268577576,True
17.19,3468.100000010372,0,0.19622,42.62,153.4,0.0,0.231,1.0,4,5453.0,-0.2792,3,3,78.60910034179688,73.96369934082031,73.94259643554688,605.32,,16,31.802,0.878,-10.97,0,3.5332,0.0029,-0.0092,42.622,0.423,0.346,79.04292297363281,4.499998569488525,81.53236389160156,13.40000057220459,268697600,False,False,0.3189045190811157,True
17.29,3468.200000010373,0,0.19726,41.92,150.9,0.0,0.076,1.0,4,5414.0,-0.3371,3,3,78.70909881591797,73.96369934082031,73.94259643554688,606.22,,16,31.802,0.874,-10.646,0,3.5593,0.0071,0.0038,41.92,0.444,0.329,79.04046630859375,4.499998569488525,81.47589111328125,13.40000057220459,268697600,False,False,0.33573538064956665,True
17.4,3468.3000000103743,0,0.19829,41.55,149.6,0.0,0.005,1.0,4,5366.0,-0.4834,3,3,78.80909729003906,73.96369934082031,73.94259643554688,606.22,,16,31.802,0.87,-12.642,0,3.588,0.0126,0.0025,41.544,0.453,0.326,79.03764343261719,4.499998569488525,81.42029571533203,13.40000057220459,268697600,False,False,0.35300761461257935,True
17.5,3468.4000000103756,0,0.19931,41.29,148.6,0.004,0.0,1.0,4,5337.0,-0.6117,3,3,78.90910339355469,73.96369934082031,73.94259643554688,606.22,,16,31.802,0.877,-13.536,0,3.6244,0.0179,0.0045,41.287,0.554,0.306,79.03459930419922,4.499998569488525,81.36527252197266,13.40000057220459,268697600,False,False,0.37037229537963867,True
17.6,3468.500000010377,0,0.20033,41.09,147.9,0.332,0.0,1.0,4,5509.0,-0.6285,3,3,79.00910186767578,73.96369934082031,73.94259643554688,606.22,,16,31.802,13.914,-15.586,0,3.6687,0.0262,0.0115,41.085,0.886,0.313,79.03272247314453,4.499998569488525,81.32552337646484,13.40000057220459,268697600,False,False,0.3878338932991028,True
17.7,3468.600000010378,0,0.20134,41.07,147.9,0.431,0.0,1.0,4,5352.0,-0.6479,3,3,79.10910034179688,73.96369934082031,73.94259643554688,606.22,,16,31.801,18.773,-16.999,0,3.7152,0.0325,0.0077,41.057,1.119,0.309,79.02973937988281,4.499998569488525,81.30804443359375,13.40000057220459,268697600,False,False,0.40528786182403564,True
17.8,3468.7000000103794,0,0.20236,41.05,147.8,0.405,0.0,1.0,4,5342.0,-0.7803,3,3,79.20909881591797,73.96369934082031,73.94259643554688,606.22,,16,31.8,18.29,-15.36,0,3.7589,0.0399,0.0086,41.034,1.189,0.289,79.0269775390625,4.499998569488525,81.2928466796875,13.40000057220459,268697600,False,False,0.4226817786693573,True
17.9,3468.8000000103807,0,0.20338,40.97,147.5,0.405,0.0,1.0,4,5387.0,-0.8239,3,3,79.30909729003906,73.96369934082031,73.94259643554688,606.22,,16,31.799,18.562,-24.295,0,3.8198,0.0343,-0.0199,40.945,1.41,0.214,79.02434539794922,4.499998569488525,81.27566528320312,13.40000057220459,268697600,False,False,0.44009140133857727,True
18.0,3468.900000010382,0,0.2044,40.98,147.5,0.47,0.0,1.0,4,5375.0,-0.8389,3,3,79.40910339355469,73.96369934082031,73.94259643554688,606.22,,16,31.799,21.973,-20.79,0,3.8487,0.0419,-0.021,40.973,0.548,0.382,79.02169799804688,4.499998569488525,81.264892578125,13.40000057220459,268697600,False,False,0.45746445655822754,True
18.1,3469.0000000103832,0,0.20542,41.02,147.7,0.508,0.0,1.0,4,5471.0,-0.895,3,3,79.50910186767578,73.96369934082031,73.94259643554688,606.22,,16,31.798,24.387,-14.346,0,3.8959,0.0521,0.0144,41.0,1.327,0.118,79.0197982788086,4.499998569488525,81.25946807861328,13.40000057220459,268697600,False,False,0.47468122839927673,True
18.2,3469.1000000103845,0,0.20644,41.03,147.7,0.556,0.0,1.0,4,5299.0,-0.7405,3,3,79.60910034179688,73.96369934082031,73.94259643554688,606.22,,16,31.797,26.835,-39.256,0,3.9698,0.0384,0.0272,40.997,1.583,-0.206,79.01725006103516,4.499998569488525,81.25956726074219,13.40000057220459,268697600,False,False,0.49156779050827026,True
18.3,3469.200000010386,0,0.20745,41.08,147.9,0.606,0.0,1.0,4,5382.0,-0.6163,3,3,79.70909881591797,73.96369934082031,73.94259643554688,606.98,,16,31.796,29.825,-17.174,0,4.0155,0.0339,0.0435,41.08,0.264,0.288,79.01451873779297,4.499998569488525,81.26585388183594,13.40000057220459,268697600,False,False,0.5079734325408936,True
18.41,3469.300000010387,0,0.20847,41.27,148.6,0.722,0.0,1.0,4,5435.0,-0.5485,3,3,79.80909729003906,73.96369934082031,73.94259643554688,606.98,,16,31.795,35.529,-10.266,0,4.0529,0.0391,0.0346,41.272,0.49,0.224,79.01216888427734,4.499998569488525,81.28182220458984,13.40000057220459,268697600,False,False,0.5236454010009766,True
18.51,3469.4000000103883,0,0.20949,41.55,149.6,0.848,0.0,1.0,4,5474.0,-0.4894,3,3,79.90910339355469,73.96369934082031,73.94259643554688,606.98,,16,31.793,40.795,-15.961,0,4.0915,0.0419,0.0289,41.54,0.642,0.192,79.0103530883789,4.499998569488525,81.309814453125,13.40000057220459,268697600,False,False,0.5386037230491638,True
18.61,3469.5000000103896,0,0.2105,41.87,150.7,0.968,0.0,1.0,4,5487.0,-0.5296,3,3,80.00910186767578,73.96369934082031,73.94259643554688,606.98,,16,31.792,43.935,-14.108,0,4.125,0.0431,0.0188,41.868,0.413,0.225,79.00856018066406,4.499998569488525,81.3470230102539,13.40000057220459,268697600,False,False,0.552821934223175,True
18.71,3469.6166666770578,0,0.21168,42.27,152.2,1.0,0.0,1.0,4,5592.0,-0.5516,3,3,80.12576293945312,73.96369934082031,73.94259643554688,606.98,,16,31.79,45.283,-13.594,0,4.1678,0.0509,-0.0037,42.265,0.663,0.286,79.00745391845703,4.499998569488525,81.39502716064453,13.40000057220459,268697600,False,False,0.5685906410217285,True
18.81,3469.716666677059,0,0.2127,42.62,153.4,1.0,0.0,1.0,4,5645.0,-0.4968,3,3,80.22576904296875,73.96369934082031,73.94259643554688,606.98,,16,31.788,45.755,-16.528,0,4.2088,0.0545,-0.008,42.609,0.912,0.252,79.00702667236328,4.499998569488525,81.43724822998047,13.40000057220459,268697600,False,False,0.5814476013183594,True
18.91,3469.8166666770603,0,0.21374,42.97,154.7,1.0,0.0,1.0,4,5649.0,-0.4513,3,3,80.32576751708984,73.96369934082031,73.94259643554688,606.98,,16,31.786,45.863,-16.973,0,4.2482,0.052,-0.0118,42.959,0.824,0.171,79.00677490234375,4.499998569488525,81.47969055175781,13.40000057220459,268697600,False,False,0.593856692314148,True
19.01,3469.9166666770616,0,0.21481,43.31,155.9,1.0,0.0,1.0,4,5730.0,-0.3922,3,3,80.42576599121094,73.96369934082031,73.94259643554688,606.98,,16,31.785,46.276,-12.926,0,4.2736,0.0619,-0.0209,43.309,0.565,0.37,79.0068130493164,4.499998569488525,81.52224731445312,13.40000057220459,268697600,False,False,0.6057661175727844,True
19.11,3470.016666677063,0,0.2159,43.7,157.3,1.0,0.0,1.0,4,5696.0,-0.2009,3,3,80.52576446533203,73.96369934082031,73.94259643554688,606.98,,16,31.783,46.206,-16.786,0,4.309,0.0514,-0.0246,43.693,0.67,0.009,79.00748443603516,4.499998569488525,81.5651626586914,13.40000057220459,268697600,False,False,0.6174001693725586,True
19.21,3470.116666677064,0,0.21699,44.07,158.7,1.0,0.0,1.0,4,5765.0,0.1276,3,3,80.62576293945312,73.96369934082031,73.94259643554688,606.98,,16,31.781,46.512,0.436,0,4.314,0.0521,-0.0179,44.071,0.09,0.273,79.00790405273438,4.499998569488525,81.60775756835938,13.40000057220459,268697600,False,False,0.6287890672683716,True
19.31,3470.2166666770654,0,0.2181,44.45,160.0,1.0,0.0,1.0,4,5823.0,0.1276,3,3,80.72576904296875,73.96369934082031,73.94259643554688,607.76,,16,31.779,46.829,3.456,0,4.304,0.0545,-0.0167,44.454,-0.068,0.217,79.009033203125,4.499998569488525,81.6506576538086,13.40000057220459,268697600,False,False,0.6400302648544312,True
