Timestamp,SessionTime,Lap,LapDistPct,Speed_ms,Speed_kmh,Throttle,Brake,Clutch,Gear,RPM,SteeringWheelAngle,Position,ClassPosition,LapCurrentLapTime,LastLapTime,BestLapTime,Gap_Ahead_s,Gap_Behind_s,Incidents,FuelLevel,FuelUsePerHour,LatAccel,LonAccel,YawNorth,Pitch,Roll,VelocityX,VelocityY,VelocityZ,OilTemp,OilPress,WaterTemp,Voltage,SessionFlags,OnPitRoad,PlayerCarInPitStall,LapDeltaToBestLap,LapDeltaToBestLap_OK
15.38,149.78332977296415,-1,-1.0,0,0.0,0.0,1.0,0,0,300.0,0.2054,0,0,0.0,,,,,0,15.0,34.284,0.007,0,0,0,0,0.004,-0.001,-0.109,77.0,0.0,77.0,13.800000190734863,268435456,False,False,0.0,False
15.48,149.88332977296423,0,0.02912,0.01,0.1,0.0,1.0,0,0,300.0,0.2059,0,0,0.0,,,,,0,15.0,34.284,-0.007,0,2.8866,0.0254,-0.01,-0.014,-0.0,-0.103,77.0,0.0,77.0,13.800000190734863,268435456,True,True,0.0,False
15.58,149.9833297729643,0,0.02911,0.03,0.1,0.0,1.0,0,0,300.0,0.2181,0,0,0.0,,,,,0,15.0,34.284,-0.036,0,2.8866,0.0205,-0.0099,0.034,0.001,0.048,77.0,0.0,77.0,13.800000190734863,268435456,True,True,0.0,False
15.68,150.09999643963107,0,0.02911,0.03,0.1,0.0,1.0,0,0,300.0,0.1889,0,0,0.0,,,,,0,15.0,34.284,-0.01,0,2.8866,0.0209,-0.0099,-0.031,-0.001,0.025,77.0,0.0,77.0,13.800000190734863,268435456,True,True,0.0,False
15.79,150.19999643963115,0,0.02911,0.01,0.0,0.129,1.0,0,0,300.0,0.1942,0,0,0.0,,,,,0,15.0,34.284,-0.155,0,2.8866,0.0201,-0.0099,0.011,-0.0,0.003,77.0,0.0,77.0,13.800000190734863,268435456,True,True,0.0,False
15.89,150.29999643963123,0,0.02911,0.0,0.0,0.354,1.0,0,0,300.0,0.1573,0,0,0.0,,,,,0,15.0,34.284,0.093,0,2.8866,0.02,-0.01,-0.002,0.0,0.001,76.99996185302734,0.7882774472236633,76.99935913085938,13.800000190734863,268435456,True,True,0.0,False
15.99,150.3999964396313,0,0.02911,0.0,0.0,0.941,1.0,0,0,444.0,0.1398,0,0,0.0,,,,,0,15.0,34.284,-0.242,0,2.8866,0.0199,-0.0096,-0.003,-0.004,-0.0,76.99992370605469,1.0280369520187378,76.99881744384766,13.800000190734863,268435456,True,True,0.0,False
16.09,150.4999964396314,0,0.02911,0.0,0.0,1.0,1.0,0,0,300.0,0.1235,0,0,0.0,,,,,0,15.0,34.284,-0.127,0,2.8866,0.0198,-0.01,0.003,0.002,-0.0,76.99989318847656,0.9044697284698486,76.99836730957031,13.800000190734863,268435456,True,True,0.0,False
16.19,150.59999643963147,0,0.02911,0.0,0.0,1.0,1.0,0,0,300.0,0.1302,0,0,0.0,,,,,0,15.0,34.284,-0.094,0,2.8866,0.0199,-0.0098,-0.002,0.001,0.0,76.9998550415039,1.068267583847046,76.99766540527344,13.800000190734863,268435456,True,True,0.0,False
16.29,150.69999643963155,0,0.02911,0.0,0.0,1.0,1.0,0,0,300.0,0.1377,0,0,0.0,,,,,0,15.0,34.284,0.04,0,2.8866,0.0198,-0.01,0.001,-0.001,0.0,76.99980926513672,1.2784496545791626,76.99695587158203,13.800000190734863,268435456,True,True,0.0,False
16.39,150.79999643963163,0,0.02911,0.0,0.0,1.0,1.0,0,0,423.0,0.1547,0,0,0.0,,,,,0,15.0,34.284,-0.234,0,2.8866,0.0198,-0.0096,-0.0,-0.002,-0.0,76.99977111816406,1.1874771118164062,76.99642944335938,13.800000190734863,268435456,True,True,0.0,False
16.49,150.8999964396317,0,0.02911,0.0,0.0,1.0,1.0,0,0,300.0,0.1803,0,0,0.0,,,,,0,15.0,34.284,-0.113,0,2.8866,0.0198,-0.01,0.0,0.002,-0.0,76.99974822998047,0.9736435413360596,76.99594116210938,13.800000190734863,268435456,True,True,0.0,False
16.59,150.9999964396318,0,0.02911,0.0,0.0,1.0,1.0,0,0,300.0,0.2016,0,0,0.0,,,,,0,15.0,34.284,-0.089,0,2.8866,0.0198,-0.0098,0.0,0.002,0.0,76.99972534179688,1.115597128868103,76.99523162841797,13.800000190734863,268435456,True,True,0.0,False
16.69,151.09999643963187,0,0.02911,0.0,0.0,1.0,1.0,0,1,300.0,0.2535,0,0,0.0,,,,,0,15.0,34.284,0.021,0,2.8866,0.0198,-0.0099,-0.0,-0.001,0.0,76.99967193603516,1.3131085634231567,76.99452209472656,13.800000190734863,268435456,True,True,0.0,False
16.8,151.19999643963195,0,0.02911,0.0,0.0,1.0,1.0,0,1,385.0,0.3311,0,0,0.0,,,,,0,15.0,34.284,-0.248,0,2.8866,0.0198,-0.0096,-0.0,-0.0,-0.0,76.99964904785156,1.1475085020065308,76.9940414428711,13.800000190734863,268435456,True,True,0.0,False
16.9,151.29999643963203,0,0.02911,0.0,0.0,1.0,1.0,0,1,300.0,0.3898,0,0,0.0,,,,,0,15.0,34.284,-0.11,0,2.8865,0.0198,-0.0099,0.0,0.002,-0.0,76.99960327148438,0.9944660663604736,76.99351501464844,13.800000190734863,268435456,True,True,0.0,False
17.0,151.3999964396321,0,0.02911,0.0,0.0,1.0,1.0,0,1,300.0,0.4755,0,0,0.0,,,,,0,15.0,34.284,-0.051,0,2.8866,0.0198,-0.0098,0.0,0.003,0.0,76.99954986572266,1.119271159172058,76.99282836914062,13.800000190734863,268435456,True,True,0.0,False
17.1,151.49999643963218,0,0.02911,0.0,0.0,1.0,1.0,0,1,351.0,0.6515,0,0,0.0,,,,,0,15.0,34.284,0.002,0,2.8865,0.0198,-0.0097,-0.0,0.0,0.0,76.99949645996094,1.3034799098968506,76.99214172363281,13.800000190734863,268435456,True,True,0.0,False
17.2,151.59999643963226,0,0.02911,0.0,0.0,1.0,1.0,0,1,333.0,0.8825,0,0,0.0,,,,,0,15.0,34.284,-0.242,0,2.8865,0.0198,-0.0094,-0.0,0.003,-0.0,76.99947357177734,1.0983022451400757,76.99169921875,13.800000190734863,268435456,True,True,0.0,False
17.3,151.69999643963234,0,0.02911,0.0,0.0,1.0,1.0,0,1,300.0,1.1205,0,0,0.0,,,,,0,15.0,34.284,-0.084,0,2.8864,0.0198,-0.0095,0.0,0.004,-0.0,76.99943542480469,1.0350868701934814,76.99110412597656,13.800000190734863,268435456,True,True,0.0,False
17.4,151.79999643963242,0,0.02911,0.0,0.0,1.0,1.0,0,1,300.0,1.3482,0,0,0.0,,,,,0,15.0,34.284,-0.076,0,2.8864,0.0198,-0.0092,0.0,0.002,0.0,76.99938201904297,1.2358704805374146,76.99054718017578,13.800000190734863,268435456,True,True,0.0,False
17.5,151.91666310629918,0,0.02911,0.0,0.0,1.0,1.0,0,1,1083.0,1.63,0,0,0.0,,,,,0,15.0,34.284,-0.057,0,2.8863,0.0198,-0.0085,-0.0,0.001,0.0,76.99927520751953,2.016472578048706,76.990478515625,13.800000190734863,268435456,True,True,0.0,False
17.6,152.01666310629926,0,0.02911,0.01,0.0,1.0,-0.0,0.34,1,1821.0,1.8653,0,0,0.0,,,,,0,15.0,34.284,0.178,0,2.8862,0.0198,-0.0079,0.004,0.006,0.0,76.99916076660156,2.348780393600464,76.99195098876953,13.800000190734863,268435456,True,True,0.0,False
17.7,152.11666310629934,0,0.02912,0.4,1.4,1.0,0.0,0.404,1,1787.0,2.0056,0,0,0.0,,,,,0,14.999,34.284,0.017,0,2.8828,0.0183,-0.0079,0.394,0.043,-0.014,76.9990005493164,2.4741103649139404,76.99596405029297,13.800000190734863,268697600,True,True,0.0,False
17.8,152.21666310629942,0,0.02913,0.82,2.9,1.0,0.0,0.458,1,1748.0,2.0339,0,0,0.0,,,,,0,14.999,34.284,0.903,0,2.8772,0.0176,-0.0072,0.814,0.096,-0.007,77.00053405761719,2.521378517150879,77.00440216064453,13.800000190734863,268697600,True,False,0.0,False
17.91,152.3166631062995,0,0.02916,1.34,4.8,1.0,0.0,0.484,1,1698.0,2.0111,0,0,0.0,,,,,0,14.999,34.284,0.516,0,2.8682,0.0173,-0.0072,1.331,0.14,-0.009,77.00203704833984,2.539205551147461,77.0144271850586,13.800000190734863,268697600,True,False,0.0,False
18.01,152.41666310629958,0,0.02919,1.87,6.7,1.0,0.0,0.482,1,1638.0,2.0193,0,0,0.0,,,,,0,14.998,34.284,0.79,0,2.8543,0.0173,-0.0067,1.856,0.212,-0.009,77.003173828125,2.545928955078125,77.02381134033203,13.800000190734863,268697600,True,False,0.0,False
18.11,152.51666310629966,0,0.02924,2.39,8.6,1.0,0.0,0.48,1,1579.0,2.0176,0,0,0.0,,,,,0,14.998,10.729,1.048,0,2.8354,0.0173,-0.0062,2.379,0.262,-0.012,77.00404357910156,2.548464775085449,77.03246307373047,13.800000190734863,268697600,True,False,0.0,False
18.21,152.61666310629974,0,0.0293,2.91,10.5,1.0,0.0,0.477,1,1519.0,2.0152,0,0,0.0,,,,,0,14.997,10.28,1.195,0,2.8121,0.0173,-0.0056,2.896,0.319,-0.015,77.00465393066406,2.5494210720062256,77.04045104980469,13.800000190734863,268697600,True,False,0.0,False
18.31,152.71666310629982,0,0.02938,3.44,12.4,1.0,0.0,0.473,1,1426.0,1.9826,0,0,0.0,,,,,0,14.997,9.577,1.437,0,2.7847,0.0173,-0.0049,3.415,0.37,-0.017,77.00505065917969,2.5497817993164062,77.04773712158203,13.800000190734863,268697600,True,False,0.0,False
18.41,152.8166631062999,0,0.02946,3.96,14.2,1.0,0.0,0.469,1,1318.0,1.8754,0,0,0.0,,,,,0,14.997,8.771,1.409,0,2.7537,0.0174,-0.0042,3.934,0.404,-0.018,77.00524139404297,2.549917697906494,77.05414581298828,13.800000190734863,268697600,True,False,0.0,False
18.51,152.91666310629998,0,0.02955,4.47,16.1,1.0,0.0,0.464,1,1215.0,1.7032,0,0,0.0,,,,,0,14.996,8.009,1.404,0,2.721,0.0176,-0.0036,4.447,0.414,-0.019,77.0052719116211,2.54996919631958,77.05977630615234,13.800000190734863,268697600,True,False,0.0,False
18.61,153.01666310630006,0,0.02966,4.97,17.9,1.0,0.0,0.459,1,1118.0,1.4921,0,0,0.0,,,,,0,14.996,7.296,1.36,0,2.6885,0.0178,-0.003,4.954,0.402,-0.021,77.00519561767578,2.5499885082244873,77.06468963623047,13.800000190734863,268697600,True,False,0.0,False
18.71,153.11666310630014,0,0.02978,5.43,19.5,1.0,0.0,1.0,1,1253.0,1.2617,0,0,0.0,,,,,0,14.996,8.287,1.08,0,2.6577,0.018,-0.0026,5.413,0.366,-0.019,77.00501251220703,2.5499956607818604,77.06965637207031,13.800000190734863,268697600,True,False,0.0,False
18.82,153.21666310630022,0,0.0299,5.89,21.2,1.0,0.0,1.0,1,1373.0,1.0159,0,0,0.0,,,,,0,14.995,9.182,0.957,0,2.63,0.0181,-0.0021,5.885,0.319,-0.023,77.00473022460938,2.5499985218048096,77.07508087158203,13.800000190734863,268697600,True,False,0.0,False
18.92,153.33332977296698,0,0.03006,6.46,23.3,1.0,0.0,1.0,1,1493.0,0.7384,0,0,0.0,,,,,0,14.995,10.082,0.677,0,2.6027,0.018,-0.0018,6.454,0.256,-0.025,77.00424194335938,2.549999475479126,77.0820083618164,13.800000190734863,268697600,True,False,0.0,False
19.02,153.43332977296706,0,0.03021,6.95,25.0,1.0,0.0,1.0,1,1597.0,0.5109,0,0,0.0,,,,,0,14.995,10.863,0.443,0,2.5846,0.018,-0.0017,6.949,0.191,-0.029,77.0036849975586,2.549999475479126,77.08846282958984,13.800000190734863,268697600,True,False,0.0,False
19.12,153.53332977296714,0,0.03037,7.45,26.8,1.0,0.0,1.0,1,1702.0,0.3268,0,0,0.0,,,,,0,14.994,11.648,0.185,0,2.5717,0.0178,-0.0016,7.45,0.132,-0.031,77.00299072265625,2.549999475479126,77.09539794921875,13.800000190734863,268697600,True,False,0.0,False
19.22,153.63332977296722,0,0.03054,7.95,28.6,1.0,0.0,1.0,1,1813.0,0.1856,0,0,0.0,,,,,0,14.994,12.478,0.039,0,2.5632,0.0178,-0.0017,7.953,0.083,-0.033,77.00214385986328,2.549999475479126,77.10277557373047,13.800000190734863,268697600,True,False,0.0,False
19.32,153.7333297729673,0,0.03072,8.46,30.5,1.0,0.0,1.0,1,1928.0,0.0472,0,0,0.0,,,,,0,14.993,13.353,-0.408,0,2.5588,0.0177,-0.002,8.461,0.029,-0.036,77.00114440917969,2.549999475479126,77.11064910888672,13.800000190734863,268697600,True,False,0.0,False
19.42,153.83332977296737,0,0.03092,8.97,32.3,1.0,0.0,1.0,1,2046.0,-0.0781,0,0,0.0,,,,,0,14.993,14.253,-0.802,0,2.5591,0.0177,-0.0023,8.974,-0.027,-0.037,76.99996185302734,2.549999475479126,77.11898803710938,13.800000190734863,268697600,True,False,0.0,False
19.52,153.93332977296745,0,0.03112,9.49,34.2,1.0,0.0,1.0,1,2165.0,-0.1695,0,0,0.0,,,,,0,14.992,15.172,-0.748,0,2.5637,0.0178,-0.0041,9.492,-0.069,-0.046,76.99861145019531,2.549999475479126,77.1278305053711,13.800000190734863,268697600,True,False,0.0,False
19.64,154.0499964396342,0,0.03138,10.1,36.4,1.0,0.0,1.0,1,2308.0,-0.2497,0,0,0.0,,,,,0,14.992,16.286,-2.723,0,2.5729,0.0148,-0.0132,10.099,-0.097,-0.053,76.99681854248047,2.549999475479126,77.13882446289062,13.800000190734863,268697600,True,False,0.0,False
19.74,154.1499964396343,0,0.03161,10.63,38.3,1.0,0.0,1.0,1,2427.0,-0.3077,0,0,0.0,,,,,0,14.991,17.22,-1.338,0,2.5846,0.0144,-0.0093,10.63,-0.162,-0.076,76.99508666992188,2.549999475479126,77.14877319335938,13.800000190734863,268697600,True,False,0.0,False
19.84,154.24999643963437,0,0.03185,11.12,40.0,1.0,0.0,1.0,1,2631.0,-0.3505,0,0,0.0,,,,,0,14.99,18.77,-1.06,0,2.601,0.0144,-0.004,11.119,-0.141,-0.057,76.99314880371094,2.549999475479126,77.1595687866211,13.800000190734863,268697600,True,False,0.0,False
19.94,154.34999643963445,0,0.03211,11.65,41.9,1.0,0.0,1.0,1,2767.0,-0.4516,0,0,0.0,,,,,0,14.99,19.759,-3.274,0,2.6209,0.0174,-0.0055,11.65,-0.154,0.003,76.99100494384766,2.549999475479126,77.1713638305664,13.800000190734863,268697600,True,False,0.0,False
20.04,154.44999643963453,0,0.03238,12.2,43.9,1.0,0.0,1.0,1,2892.0,-0.4257,0,0,0.0,,,,,0,14.989,20.622,-2.811,0,2.6428,0.0186,-0.0021,12.194,-0.168,-0.002,76.98867797851562,2.549999475479126,77.18331146240234,13.800000190734863,268697600,True,False,0.0,False
20.15,154.5499964396346,0,0.03266,12.76,45.9,1.0,0.0,1.0,1,2970.0,-0.3541,0,0,0.0,,,,,0,14.988,21.146,-2.766,0,2.6642,0.0187,-0.0033,12.755,-0.118,-0.054,76.98613739013672,2.549999475479126,77.19587707519531,13.800000190734863,268697600,True,False,0.0,False
20.25,154.6499964396347,0,0.03296,13.29,47.8,1.0,0.0,1.0,1,3159.0,-0.3069,0,0,0.0,,,,,0,14.987,22.425,-2.116,0,2.6828,0.0206,-0.005,13.285,-0.098,-0.056,76.9833984375,2.549999475479126,77.20878601074219,13.800000190734863,268697600,True,False,0.0,False
20.35,154.74999643963477,0,0.03326,13.78,49.6,1.0,0.0,1.0,1,3319.0,-0.2784,0,0,0.0,,,,,0,14.986,23.494,-2.204,0,2.6998,0.0192,-0.0068,13.78,-0.086,-0.06,76.98046112060547,2.549999475479126,77.22198486328125,13.800000190734863,268697600,True,False,0.0,False
20.45,154.84999643963485,0,0.03358,14.03,50.5,1.0,0.0,1.0,1,3107.0,-0.2717,0,0,0.0,,,,,0,14.986,22.077,-2.469,0,2.7156,0.0198,-0.0078,14.027,-0.089,-0.05,76.97740936279297,2.549999475479126,77.23247528076172,13.800000190734863,268697600,True,False,0.0,False
20.55,154.9666631063016,0,0.03396,13.98,50.3,1.0,0.0,1.0,1,3153.0,-0.2583,0,0,0.0,,,,,0,14.985,22.387,-2.232,0,2.7342,0.0223,-0.0069,13.977,-0.089,0.005,76.97383880615234,2.549999475479126,77.24224090576172,13.800000190734863,268697600,True,False,0.0,False
20.65,155.0666631063017,0,0.03428,13.89,50.0,1.0,0.0,1.0,1,3129.0,-0.25,0,0,0.0,,,,,0,14.984,22.223,-2.225,0,2.7499,0.022,-0.0077,13.888,-0.08,-0.019,76.9708023071289,2.549999475479126,77.25080108642578,13.800000190734863,268697600,True,False,0.0,False
20.75,155.16666310630177,0,0.0346,13.83,49.8,1.0,0.0,1.0,1,3240.0,-0.2433,0,0,0.0,,,,,0,14.983,22.968,-1.931,0,2.7647,0.0224,-0.008,13.833,-0.079,-0.015,76.96778106689453,2.549999475479126,77.2594985961914,13.800000190734863,268697600,True,False,0.0,False
20.85,155.26666310630185,0,0.03492,13.86,49.9,1.0,0.0,1.0,1,3214.0,-0.2392,0,0,0.0,,,,,0,14.982,22.794,-2.112,0,2.779,0.023,-0.009,13.864,-0.077,-0.006,76.96475982666016,2.549999475479126,77.26840209960938,13.800000190734863,268697600,True,False,0.0,False
20.95,155.36666310630193,0,0.03524,13.9,50.0,1.0,0.0,1.0,1,3115.0,-0.2313,0,0,0.0,,,,,0,14.981,22.129,-2.043,0,2.793,0.0231,-0.0105,13.898,-0.071,-0.023,76.96174621582031,2.549999475479126,77.27680969238281,13.800000190734863,268697600,True,False,0.0,False
21.05,155.466663106302,0,0.03556,13.9,50.0,1.0,0.0,1.0,1,3098.0,-0.2186,0,0,0.0,,,,,0,14.98,22.013,-1.975,0,2.8064,0.022,-0.0122,13.897,-0.07,-0.022,76.95873260498047,2.549999475479126,77.28518676757812,13.800000190734863,268697600,True,False,0.0,False
21.16,155.5666631063021,0,0.03588,13.83,49.8,1.0,0.0,1.0,1,3257.0,-0.2138,0,0,0.0,,,,,0,14.98,23.08,-1.843,0,2.8194,0.022,-0.0122,13.828,-0.069,-0.009,76.95572662353516,2.549999475479126,77.29389190673828,13.800000190734863,268697600,True,False,0.0,False
21.26,155.66666310630217,0,0.0362,13.9,50.0,1.0,0.0,1.0,1,3098.0,-0.2143,0,0,0.0,,,,,0,14.979,22.017,-1.934,0,2.8322,0.021,-0.0112,13.899,-0.07,-0.041,76.95270538330078,2.549999475479126,77.3027572631836,13.800000190734863,268697600,True,False,0.0,False
21.36,155.76666310630225,0,0.03652,13.91,50.1,1.0,0.0,1.0,1,3110.0,-0.2116,0,0,0.0,,,,,0,14.978,22.095,-2.014,0,2.8448,0.0222,-0.0097,13.906,-0.076,-0.024,76.9496841430664,2.549999475479126,77.31114959716797,13.800000190734863,268697600,True,False,0.0,False
21.46,155.86666310630233,0,0.03684,13.89,50.0,1.0,0.0,1.0,1,3103.0,-0.2054,0,0,0.0,,,,,0,14.977,22.048,-1.74,0,2.8575,0.0238,-0.011,13.886,-0.069,0.005,76.94666290283203,2.549999475479126,77.31953430175781,13.800000190734863,268697600,True,False,0.0,False
21.56,155.9666631063024,0,0.03717,13.83,49.8,1.0,0.0,1.0,1,3263.0,-0.1183,0,0,0.0,,,,,0,14.976,23.122,-0.981,0,2.8686,0.024,-0.0106,13.833,-0.042,-0.025,76.94364929199219,2.549999475479126,77.32832336425781,13.800000190734863,268697600,True,False,0.0,False
21.66,156.06666310630249,0,0.03749,13.88,50.0,1.0,0.0,1.0,1,3120.0,-0.0374,0,0,0.0,,,,,0,14.975,22.16,-0.392,0,2.8746,0.0266,-0.0103,13.883,-0.01,-0.03,76.94062805175781,2.549999475479126,77.33711242675781,13.800000190734863,268697600,True,False,0.0,False
21.76,156.16666310630256,0,0.03781,13.89,50.0,1.0,0.0,1.0,1,3096.0,0.0199,0,0,0.0,,,,,0,14.975,22.0,0.111,0,2.8765,0.0289,-0.0071,13.892,0.004,0.001,76.93760681152344,2.549999475479126,77.34551239013672,13.800000190734863,268697600,True,False,0.0,False
21.86,156.26666310630264,0,0.03813,13.89,50.0,1.0,0.0,1.0,1,3105.0,0.0498,0,0,0.0,,,,,0,14.974,22.064,0.473,0,2.8755,0.0315,-0.0035,13.891,0.013,-0.017,76.93458557128906,2.549999475479126,77.3538818359375,13.800000190734863,268697600,True,False,0.0,False
21.97,156.36666310630272,0,0.03846,13.84,49.8,1.0,0.0,1.0,1,3228.0,0.0804,0,0,0.0,,,,,0,14.973,22.799,0.701,0,2.8717,0.0316,0.0012,13.84,0.014,-0.004,76.93109130859375,2.549999475479126,77.36404418945312,13.800000190734863,268697600,True,False,0.0,False
22.07,156.4666631063028,0,0.03878,13.85,49.8,1.0,0.0,1.0,1,3197.0,0.0776,0,0,0.0,,,,,0,14.972,22.678,0.604,0,2.868,0.0296,0.0047,13.847,0.017,-0.007,76.92857360839844,2.549999475479126,77.37133026123047,13.800000190734863,268697600,True,False,0.0,False
22.17,156.58332977296956,0,0.03915,13.87,49.9,1.0,0.0,1.0,1,3093.0,0.063,0,0,0.0,,,,,0,14.971,21.982,0.454,0,2.8634,0.0258,0.0093,13.875,0.01,-0.055,76.92507934570312,2.549999475479126,77.38126373291016,13.800000190734863,268697600,True,False,0.0,False
22.27,156.68332977296964,0,0.03948,13.88,50.0,1.0,0.0,1.0,1,3103.0,0.0362,0,0,0.0,,,,,0,14.97,22.049,0.262,0,2.8605,0.0254,0.0135,13.878,-0.007,-0.008,76.92207336425781,2.549999475479126,77.38961791992188,13.800000190734863,268697600,True,False,0.0,False
22.37,156.78332977296972,0,0.0398,13.83,49.8,1.0,0.0,1.0,1,3207.0,0.0168,0,0,0.0,,,,,0,14.97,22.745,0.331,0,2.8588,0.0255,0.0148,13.834,-0.006,-0.021,76.9190673828125,2.549999475479126,77.3980941772461,13.800000190734863,268697600,True,False,0.0,False
22.47,156.8833297729698,0,0.04012,13.84,49.8,1.0,0.0,1.0,1,3211.0,0.0122,0,0,0.0,,,,,0,14.969,22.775,0.408,0,2.8578,0.0281,0.0173,13.841,-0.011,-0.038,76.91605377197266,2.549999475479126,77.40691375732422,13.800000190734863,268697600,True,False,0.0,False
22.57,156.98332977296988,0,0.04045,13.87,49.9,1.0,0.0,1.0,1,3131.0,0.017,0,0,0.0,,,,,0,14.968,22.24,0.373,0,2.857,0.0303,0.0173,13.868,-0.002,0.031,76.91304779052734,2.549999475479126,77.41558074951172,13.800000190734863,268697600,True,False,0.0,False
22.67,157.08332977296996,0,0.04077,13.88,50.0,1.0,0.0,1.0,1,3097.0,0.0208,0,0,0.0,,,,,0,14.967,22.011,0.312,0,2.8559,0.0268,0.0189,13.877,-0.008,-0.046,76.9100570678711,2.549999475479126,77.42396545410156,13.800000190734863,268697600,True,False,0.0,False
22.78,157.18332977297004,0,0.0411,13.87,49.9,1.0,0.0,1.0,1,3108.0,0.0127,0,0,0.0,,,,,0,14.966,22.081,0.258,0,2.8549,0.0234,0.0201,13.866,-0.004,-0.037,76.90705108642578,2.549999475479126,77.4323501586914,13.800000190734863,268697600,True,False,0.0,False
22.88,157.28332977297012,0,0.04142,13.83,49.8,1.0,0.0,1.0,1,3236.0,-0.0041,0,0,0.0,,,,,0,14.965,22.945,0.254,0,2.8546,0.0228,0.02,13.833,-0.01,-0.011,76.9040298461914,2.549999475479126,77.44113159179688,13.800000190734863,268697600,True,False,0.0,False
22.98,157.3833297729702,0,0.04174,13.9,50.0,1.0,0.0,1.0,1,3092.0,-0.0062,0,0,0.0,,,,,0,14.965,21.979,-0.113,0,2.8548,0.0204,0.0209,13.897,-0.019,-0.017,76.90103149414062,2.549999475479126,77.44987487792969,13.800000190734863,268697600,True,False,0.0,False
23.08,157.48332977297028,0,0.04207,13.91,50.1,1.0,0.0,1.0,1,3682.0,-0.0045,0,0,0.0,,,,,0,14.964,25.887,0.249,0,2.8551,0.0205,0.0209,13.909,-0.009,-0.023,76.89802551269531,2.549999475479126,77.46037292480469,13.800000190734863,268697600,False,False,0.0,False
23.18,157.58332977297036,0,0.0424,14.56,52.4,1.0,0.0,1.0,1,3449.0,-0.0029,0,0,0.0,,,,,0,14.963,24.361,0.12,0,2.8554,0.0167,0.0202,14.56,-0.015,-0.072,76.89485168457031,2.549999475479126,77.4742431640625,13.800000190734863,268697600,False,False,0.0,False
23.28,157.68332977297044,0,0.04275,15.12,54.4,1.0,0.0,1.0,1,3539.0,-0.0036,0,0,0.0,,,,,0,14.962,24.961,0.017,0,2.8555,0.0144,0.0187,15.122,-0.012,-0.092,76.89147186279297,2.549999475479126,77.48847961425781,13.800000190734863,268697600,False,False,0.0,False
23.38,157.78332977297052,0,0.04311,15.67,56.4,1.0,0.0,1.0,1,3697.0,-0.0041,0,0,0.0,,,,,0,14.961,25.984,0.25,0,2.8557,0.0158,0.0213,15.668,-0.014,-0.059,76.88787841796875,2.549999475479126,77.50309753417969,13.800000190734863,268697600,False,False,0.0,False
23.48,157.89999643963728,0,0.04355,16.31,58.7,1.0,0.0,1.0,1,3868.0,0.0069,0,0,0.0,,,,,0,14.96,27.028,0.101,0,2.8559,0.0159,0.0194,16.31,-0.01,-0.077,76.8834457397461,2.559197187423706,77.52067565917969,13.800000190734863,268697600,False,False,0.0,False
23.58,157.99999643963736,0,0.04394,16.87,60.7,1.0,0.0,1.0,1,3983.0,0.0177,0,0,0.0,,,,,0,14.959,27.679,0.483,0,2.8553,0.0157,0.0179,16.87,-0.007,-0.103,76.87943267822266,2.6268203258514404,77.53608703613281,13.800000190734863,268697600,False,False,0.0,False
23.69,158.09999643963744,0,0.04436,17.43,62.7,1.0,0.0,1.0,1,4107.0,0.0201,0,0,0.0,,,,,0,14.958,28.377,0.34,0,2.854,0.0159,0.0182,17.427,-0.008,-0.059,76.8752212524414,2.73205828666687,77.55175018310547,13.800000190734863,268697600,False,False,0.0,False
23.79,158.19999643963752,0,0.0448,17.98,64.7,1.0,0.0,1.0,1,4245.0,0.0211,0,0,0.0,,,,,0,14.957,29.111,0.344,0,2.8525,0.0144,0.0196,17.975,-0.012,-0.103,76.870849609375,2.8619577884674072,77.56774139404297,13.800000190734863,268697600,False,False,0.0,False
23.89,158.2999964396376,0,0.04525,18.53,66.7,1.0,0.0,1.0,1,4372.0,0.0225,0,0,0.0,,,,,0,14.956,29.721,0.501,0,2.8509,0.0145,0.0199,18.527,-0.014,-0.075,76.86629486083984,2.982579231262207,77.5838394165039,13.800000190734863,268697600,False,False,0.0,False
23.99,158.39999643963768,0,0.04573,19.07,68.6,1.0,0.0,1.0,1,4519.0,0.0172,0,0,0.0,,,,,0,14.954,30.385,0.446,0,2.8494,0.015,0.0188,19.066,-0.016,-0.094,76.86156463623047,3.1127419471740723,77.60009765625,13.800000190734863,268697600,False,False,0.0,False
24.09,158.49999643963775,0,0.04621,19.62,70.6,1.0,0.0,1.0,1,4634.0,0.0132,0,0,0.0,,,,,0,14.953,30.875,0.42,0,2.8481,0.0156,0.0175,19.615,-0.016,-0.074,76.856689453125,3.241236925125122,77.61646270751953,13.800000190734863,268697600,False,False,0.0,False
24.19,158.59999643963783,0,0.04672,20.15,72.6,1.0,0.0,1.0,1,4769.0,0.0041,0,0,0.0,,,,,0,14.952,31.421,0.192,0,2.8471,0.0157,0.0161,20.153,-0.017,-0.088,76.85184478759766,3.3390538692474365,77.63290405273438,13.800000190734863,268697600,False,False,0.0,False
24.29,158.6999964396379,0,0.04724,20.69,74.5,1.0,0.0,1.0,1,4893.0,-0.0294,0,0,0.0,,,,,0,14.951,31.837,-0.052,0,2.8471,0.0171,0.0132,20.689,-0.018,-0.095,76.8472900390625,3.37701416015625,77.6493148803711,13.800000190734863,268697600,False,False,0.0,False
24.39,158.799996439638,0,0.04777,21.22,76.4,1.0,0.0,1.0,1,5014.0,-0.1144,0,0,0.0,,,,,0,14.95,32.222,-0.954,0,2.8502,0.0162,0.0138,21.221,-0.026,-0.1,76.84313201904297,3.3913309574127197,77.66563415527344,13.800000190734863,268697600,False,False,0.0,False
24.49,158.89999643963807,0,0.04832,21.75,78.3,1.0,0.0,1.0,1,5122.0,-0.2188,0,0,0.0,,,,,0,14.949,32.643,-2.898,0,2.8604,0.017,0.0142,21.752,-0.025,-0.081,76.83935546875,3.396730661392212,77.68194580078125,13.800000190734863,268697600,False,False,0.0,False
24.59,158.99999643963815,0,0.0489,22.26,80.1,1.0,0.0,1.0,1,5271.0,-0.2569,0,0,0.0,,,,,0,14.947,33.108,-3.759,0,2.8784,0.0183,0.0134,22.26,0.046,-0.099,76.8359603881836,3.3987669944763184,77.69822692871094,13.800000190734863,268697600,False,False,0.0,False
24.69,159.09999643963823,0,0.04948,22.77,82.0,1.0,0.0,1.0,1,5393.0,-0.2852,0,0,0.0,,,,,0,14.946,33.376,-3.995,0,2.9009,0.0195,0.0133,22.768,0.121,-0.104,76.8330307006836,3.3995349407196045,77.71432495117188,13.800000190734863,268697600,False,False,0.0,False
24.8,159.1999964396383,0,0.05009,23.27,83.8,1.0,0.0,1.0,1,5509.0,-0.3764,0,0,0.0,,,,,0,14.945,33.613,-5.931,0,2.9261,0.0241,0.0115,23.267,0.169,-0.055,76.83056640625,3.399824857711792,77.73018646240234,13.800000190734863,268697600,False,False,0.0,False
24.9,159.2999964396384,0,0.05071,23.74,85.5,1.0,0.0,1.0,1,5666.0,-0.3931,0,0,0.0,,,,,0,14.944,33.929,-6.624,0,2.9588,0.028,0.0089,23.74,0.306,-0.061,76.82869720458984,3.3999340534210205,77.74579620361328,13.800000190734863,268697600,False,False,0.0,False
25.0,159.39999643963847,0,0.05136,24.22,87.2,1.0,0.0,1.0,1,5787.0,-0.3879,0,0,0.0,,,,,0,14.942,34.173,-7.546,0,2.9938,0.0323,0.006,24.216,0.439,-0.053,76.82735443115234,3.399975299835205,77.76118469238281,13.800000190734863,268697600,False,False,0.0,False
25.1,159.51666310630523,0,0.05213,24.77,89.2,1.0,0.0,1.0,1,5919.0,-0.4104,0,0,0.0,,,,,0,14.941,34.329,-8.372,0,3.0374,0.0343,0.0034,24.761,0.55,-0.055,76.82645416259766,3.3999922275543213,77.77873992919922,13.800000190734863,268697600,False,False,0.0,False
25.2,159.6166631063053,0,0.05281,25.23,90.8,1.0,0.0,1.0,1,6002.0,-0.4171,0,0,0.0,,,,,0,14.94,34.408,-10.11,0,3.0774,0.0323,-0.0001,25.222,0.574,-0.045,76.82606506347656,3.3999972343444824,77.79338836669922,13.800000190734863,268697600,False,False,0.0,False
25.3,159.7166631063054,0,0.05351,25.69,92.5,1.0,0.0,1.0,1,6081.0,-0.4056,0,0,0.0,,,,,0,14.938,34.478,-9.416,0,3.1157,0.0323,0.0022,25.679,0.602,-0.048,76.82608032226562,3.3999991416931152,77.80764770507812,13.800000190734863,268697600,False,False,0.0,False
25.4,159.81666310630547,0,0.0542,26.11,94.0,1.0,0.0,1.0,1,6225.0,-0.3998,0,0,0.0,,,,,0,14.937,34.567,-10.409,0,3.1551,0.0327,0.0038,26.099,0.645,-0.01,76.82659912109375,3.3999993801116943,77.82148742675781,13.800000190734863,268697600,False,False,0.0,False
25.5,159.91666310630555,0,0.0549,26.55,95.6,1.0,0.0,1.0,1,6295.0,-0.4065,0,0,0.0,,,,,0,14.936,34.555,-9.847,0,3.1982,0.0266,0.0052,26.535,0.733,-0.118,76.82763671875,3.3999993801116943,77.8348388671875,13.800000190734863,268697600,False,False,0.0,False
25.6,160.01666310630563,0,0.05561,26.96,97.0,1.0,0.0,1.0,1,6408.0,-0.4386,0,0,0.0,,,,,0,14.935,34.519,-9.458,0,3.233,0.0309,0.0083,26.947,0.672,0.001,76.82893371582031,3.3999993801116943,77.84772491455078,13.800000190734863,268697600,False,False,0.0,False
25.71,160.1166631063057,0,0.05633,27.34,98.4,1.0,0.0,1.0,1,6547.0,-0.4939,0,0,0.0,,,,,0,14.933,34.419,-10.974,0,3.2773,0.0302,0.0089,27.325,0.85,-0.039,76.83113098144531,3.3999993801116943,77.85990905761719,13.800000190734863,268697600,False,False,0.0,False
25.81,160.2166631063058,0,0.05706,27.72,99.8,1.0,0.0,1.0,1,6622.0,-0.5006,0,0,0.0,,,,,0,14.932,34.349,-11.638,0,3.3258,0.0266,0.0033,27.703,0.968,-0.058,76.83375549316406,3.3999993801116943,77.87154388427734,13.800000190734863,268697600,False,False,0.0,False
25.91,160.31666310630587,0,0.05779,28.09,101.1,1.0,0.0,1.0,1,6703.0,-0.4652,0,0,0.0,,,,,0,14.931,34.25,-11.297,0,3.3696,0.0279,0.003,28.072,1.033,-0.01,76.83683013916016,3.3999993801116943,77.8825912475586,13.800000190734863,268697600,False,False,0.0,False
26.01,160.41666310630595,0,0.05854,28.44,102.4,1.0,0.0,1.0,1,6799.0,-0.3986,0,0,0.0,,,,,0,14.929,34.122,-12.077,0,3.4175,0.0253,0.0023,28.416,1.178,-0.036,76.84046936035156,3.3999993801116943,77.89300537109375,13.800000190734863,268697600,False,False,0.0,False
26.11,160.51666310630603,0,0.05929,28.8,103.7,1.0,0.0,1.0,1,6847.0,-0.3692,0,0,0.0,,,,,0,14.928,34.015,-11.898,0,3.4595,0.0245,0.0054,28.779,1.174,-0.015,76.84442138671875,3.3999993801116943,77.90288543701172,13.800000190734863,268697600,False,False,0.0,False
26.21,160.6166631063061,0,0.06006,29.13,104.9,1.0,0.0,1.0,1,6945.0,-0.3646,0,0,0.0,,,,,0,14.927,33.783,-12.446,0,3.5017,0.0208,0.0049,29.11,1.147,-0.028,76.84883880615234,3.3999993801116943,77.91206359863281,13.800000190734863,268697600,False,False,0.0,False
26.31,160.71666310630619,0,0.06083,29.47,106.1,1.0,0.0,1.0,1,6997.0,-0.3541,0,0,0.0,,,,,0,14.926,33.656,-12.632,0,3.5401,0.0167,0.0014,29.455,1.042,-0.029,76.85363006591797,3.3999993801116943,77.92064666748047,13.800000190734863,268697600,False,False,0.0,False
26.41,160.81666310630627,0,0.06161,29.81,107.3,1.0,0.0,1.0,1,7039.0,-0.345,0,0,0.0,,,,,0,14.924,32.084,-12.016,0,3.5738,0.0152,-0.0003,29.795,0.958,-0.039,76.85870361328125,3.3999993801116943,77.92717742919922,13.800000190734863,268697600,False,False,0.0,False
26.51,160.91666310630634,0,0.06243,30.11,108.4,1.0,0.0,1.0,1,7084.0,-0.3378,0,0,0.0,,,,,0,14.923,30.236,-12.111,0,3.6114,0.0104,0.0004,30.092,0.969,-0.082,76.8640365600586,3.3999993801116943,77.9303207397461,13.800000190734863,268697600,False,False,0.0,False
26.61,161.01666310630642,0,0.06333,30.4,109.4,1.0,0.0,1.0,1,7096.0,-0.3215,0,0,0.0,,,,,0,14.922,29.716,-11.214,0,3.646,0.0071,0.0044,30.385,0.845,-0.039,76.86934661865234,3.3999993801116943,77.93270111083984,13.800000190734863,268697600,False,False,0.0,False
26.72,161.1166631063065,0,0.06425,30.63,110.3,1.0,0.0,0.5,1,7157.0,-0.2844,0,0,0.0,,,,,0,14.921,27.227,-10.283,0,3.6811,0.0031,0.0089,30.622,0.839,-0.053,76.87596130371094,3.3999993801116943,77.93067932128906,13.800000190734863,268697600,False,False,0.0,False
26.82,161.23332977297326,0,0.06534,30.72,110.6,1.0,0.0,0,2,7396.0,-0.2243,0,0,0.0,,,,,0,14.92,19.072,-11.179,0,3.7209,-0.0055,0.0077,30.709,0.756,-0.077,76.88346862792969,3.3999993801116943,77.91319274902344,13.800000190734863,268697600,False,False,0.0,False
26.92,161.33332977297334,0,0.06631,30.59,110.1,1.0,0.0,0.306,2,7389.0,-0.1815,0,0,0.0,,,,,0,14.92,19.283,-8.111,0,3.7474,-0.0108,0.0066,30.586,0.595,-0.047,76.89107513427734,3.3999993801116943,77.896728515625,13.800000190734863,268697600,False,False,0.0,False
27.02,161.43332977297342,0,0.0673,31.05,111.8,1.0,0.0,1.0,2,5993.0,-0.148,0,0,0.0,,,,,0,14.918,34.403,-6.644,0,3.7705,-0.0144,0.0096,31.048,0.641,-0.107,76.8915786743164,3.3999993801116943,77.9038314819336,13.800000190734863,268697600,False,False,0.0,False
27.12,161.5333297729735,0,0.06836,31.41,113.1,1.0,0.0,1.0,2,5912.0,-0.1429,0,0,0.0,,,,,0,14.917,34.325,-6.547,0,3.7897,-0.0154,0.011,31.409,0.557,-0.076,76.88867950439453,3.3999993801116943,77.91484832763672,13.800000190734863,268697600,False,False,0.0,False
27.22,161.63332977297358,0,0.06947,31.74,114.3,1.0,0.0,1.0,2,5968.0,-0.1566,0,0,0.0,,,,,0,14.916,34.379,-6.255,0,3.8066,-0.0159,0.0167,31.741,0.48,-0.079,76.88590240478516,3.3999993801116943,77.92559814453125,13.800000190734863,268697600,False,False,0.0,False
27.32,161.73332977297366,0,0.07065,32.07,115.5,1.0,0.0,1.0,2,6024.0,-0.1415,0,0,0.0,,,,,0,14.915,34.432,-5.88,0,3.8258,-0.0201,0.017,32.066,0.461,-0.118,76.88336944580078,3.3999993801116943,77.93606567382812,13.800000190734863,268697600,False,False,0.0,False
27.42,161.83332977297374,0,0.07177,32.39,116.6,1.0,0.0,1.0,2,6085.0,-0.1216,0,0,0.0,,,,,0,14.913,34.485,-4.963,0,3.8419,-0.0225,0.0158,32.386,0.425,-0.12,76.88101959228516,3.3999993801116943,77.9462890625,13.800000190734863,268697600,False,False,0.0,False
27.52,161.93332977297382,0,0.0728,32.7,117.7,1.0,0.0,1.0,2,6145.0,-0.1269,0,0,0.0,,,,,0,14.912,34.531,-4.693,0,3.8556,-0.0225,0.0157,32.703,0.386,-0.098,76.87895202636719,3.3999993801116943,77.9561996459961,13.800000190734863,268697600,False,False,0.0,False
27.62,162.0333297729739,0,0.07375,33.01,118.8,1.0,0.0,1.0,2,6214.0,-0.1204,0,0,0.0,,,,,0,14.911,34.57,-4.153,0,3.8697,-0.0218,0.0125,33.01,0.404,-0.104,76.87724304199219,3.3999993801116943,77.96578979492188,13.800000190734863,268697600,False,False,0.0,False
27.73,162.13332977297398,0,0.07465,33.32,120.0,1.0,0.0,1.0,2,6281.0,-0.1178,0,0,0.0,,,,,0,14.909,34.559,-4.406,0,3.8829,-0.0194,0.0079,33.317,0.422,-0.075,76.87582397460938,3.3999993801116943,77.97501373291016,13.800000190734863,268697600,False,False,0.0,False
27.83,162.23332977297406,0,0.07552,33.64,121.1,1.0,0.0,1.0,2,6307.0,-0.0979,0,0,0.0,,,,,0,14.908,34.553,-5.439,0,3.897,-0.022,0.0108,33.637,0.429,-0.133,76.87464141845703,3.3999993801116943,77.98388671875,13.800000190734863,268697600,False,False,0.0,False
27.93,162.33332977297414,0,0.07634,33.94,122.2,1.0,0.0,1.0,2,6346.0,-0.0675,0,0,0.0,,,,,0,14.907,34.542,-3.884,0,3.9095,-0.0253,0.0119,33.942,0.375,-0.135,76.87352752685547,3.3999993801116943,77.99250030517578,13.800000190734863,268697600,False,False,0.0,False
28.03,162.43332977297422,0,0.07715,34.23,123.2,1.0,0.0,1.0,2,6428.0,-0.0711,0,0,0.0,,,,,0,14.906,34.506,-3.201,0,3.9181,-0.0252,0.0171,34.232,0.305,-0.115,76.87273406982422,3.3999993801116943,78.0007095336914,13.800000190734863,268697600,False,False,0.0,False
28.13,162.5333297729743,0,0.07794,34.52,124.3,1.0,0.0,1.0,2,6488.0,-0.0922,0,0,0.0,,,,,0,14.904,34.464,-2.78,0,3.9268,-0.023,0.0199,34.522,0.281,-0.092,76.87226104736328,3.3999993801116943,78.00852966308594,13.800000190734863,268697600,False,False,0.0,False
28.23,162.63332977297438,0,0.07872,34.8,125.3,1.0,0.0,1.0,2,6575.0,-0.0718,0,0,0.0,,,,,0,14.903,34.396,-2.539,0,3.9363,-0.0177,0.0153,34.8,0.332,-0.067,76.87223052978516,3.3999993801116943,78.01586151123047,13.800000190734863,268697600,False,False,0.0,False
28.33,162.73332977297446,0,0.0795,35.08,126.3,1.0,0.0,1.0,2,6666.0,-0.0546,0,0,0.0,,,,,0,14.902,34.295,-1.982,0,3.9435,-0.0066,0.0114,35.075,0.368,0.015,76.87271118164062,3.3999993801116943,78.02265167236328,13.800000190734863,268697600,False,False,0.0,False
28.43,162.84999643964122,0,0.08041,35.39,127.4,1.0,0.0,1.0,2,6826.0,-0.0709,0,0,0.0,,,,,0,14.9,34.06,-1.715,0,3.9519,0.0078,0.0105,35.384,0.432,0.049,76.874267578125,3.3999993801116943,78.02960968017578,13.800000190734863,268697600,False,False,0.0,False
28.53,162.9499964396413,0,0.08121,35.73,128.6,1.0,0.0,1.0,2,6768.0,-0.1432,0,0,0.0,,,,,0,14.899,34.164,-3.936,0,3.9632,0.0099,0.0063,35.723,0.485,-0.061,76.8757095336914,3.3999993801116943,78.03521728515625,13.800000190734863,268697600,False,False,0.0,False
28.63,163.04999643964138,0,0.08202,36.04,129.7,1.0,0.0,1.0,2,6774.0,-0.0876,0,0,0.0,,,,,0,14.898,34.155,-4.68,0,3.9787,0.0073,0.0005,36.036,0.566,-0.129,76.87688446044922,3.3999993801116943,78.04076385498047,13.800000190734863,268697600,False,False,0.0,False
28.74,163.14999643964146,0,0.08284,36.33,130.8,1.0,0.0,1.0,2,6818.0,-0.0443,0,0,0.0,,,,,0,14.896,34.079,-3.961,0,3.9895,0.0046,-0.0058,36.331,0.503,-0.135,76.8780746459961,3.3999993801116943,78.04603576660156,13.800000190734863,268697600,False,False,0.0,False
28.84,163.24999643964154,0,0.08366,36.63,131.9,1.0,0.0,1.0,2,6845.0,-0.0611,0,0,0.0,,,,,0,14.895,34.018,-3.197,0,3.9951,0.0029,-0.0081,36.627,0.369,-0.147,76.87955474853516,3.3999993801116943,78.05084991455078,13.800000190734863,268697600,False,False,0.0,False
28.94,163.34999643964161,0,0.0845,36.89,132.8,1.0,0.0,1.0,2,6956.0,-0.1525,0,0,0.0,,,,,0,14.894,33.755,-3.788,0,4.0013,0.0073,-0.0029,36.886,0.285,-0.052,76.88148498535156,3.3999993801116943,78.05500030517578,13.800000190734863,268697600,False,False,0.0,False
29.04,163.43332977297501,0,0.08535,37.16,133.8,1.0,0.0,1.0,2,7008.0,-0.2533,0,0,0.0,,,,,0,14.893,33.317,-7.124,0,4.0196,0.0064,0.011,37.154,0.425,-0.051,76.8837890625,3.3999993801116943,78.05852508544922,13.800000190734863,268697600,False,False,0.0,False
29.14,163.5333297729751,0,0.0862,37.43,134.7,1.0,0.0,1.0,2,7015.0,-0.1516,0,0,0.0,,,,,0,14.891,33.025,-6.873,0,4.0472,0.0022,0.011,37.419,0.698,-0.078,76.88600158691406,3.3999993801116943,78.06171417236328,13.800000190734863,268697600,False,False,0.0,False
29.24,163.63332977297517,0,0.08707,37.66,135.6,1.0,0.0,1.0,2,7053.0,-0.0187,0,0,0.0,,,,,0,14.89,31.488,-4.307,0,4.0671,0.0019,0.0104,37.649,0.871,-0.135,76.8886947631836,3.3999993801116943,78.06204986572266,13.800000190734863,268697600,False,False,0.0,False
29.34,163.73332977297525,0,0.08794,37.88,136.4,1.0,0.0,0.667,2,7103.0,-0.0393,0,0,0.0,,,,,0,14.889,29.425,-4.906,0,4.0748,0.0057,0.0119,37.873,0.658,-0.023,76.8915786743164,3.3999993801116943,78.05997467041016,13.800000190734863,268697600,False,False,0.0,False
29.44,163.83332977297533,0,0.08882,37.95,136.6,1.0,0.0,0,0,7394.0,0.0263,0,0,0.0,,,,,0,14.888,19.111,-2.424,0,4.0786,0.0058,0.0123,37.951,0.434,-0.065,76.89601135253906,3.3999993801116943,78.04497528076172,13.800000190734863,268697600,False,False,0.0,False
29.54,163.9333297729754,0,0.0897,37.92,136.5,1.0,0.0,0,3,7393.0,-0.0146,0,0,0.0,,,,,0,14.888,19.15,-1.779,0,4.0776,0.0062,0.0164,37.922,0.191,-0.043,76.90135955810547,3.3999993801116943,78.02164459228516,13.800000190734863,268697600,False,False,0.0,False
29.66,164.04999643964217,0,0.09073,38.22,137.6,1.0,0.0,1.0,3,5770.0,0.0146,0,0,0.0,,,,,0,14.886,34.142,-0.296,0,4.0777,0.0,0.0143,38.222,0.08,-0.181,76.90200805664062,3.3999993801116943,78.01652526855469,13.800000190734863,268697600,False,False,0.0,False
29.76,164.14999643964225,0,0.09162,38.49,138.6,0.944,0.029,1.0,3,5888.0,-0.0089,0,0,0.0,,,,,0,14.885,34.1,0.011,0,4.0759,0.0042,0.0151,38.487,-0.012,-0.091,76.89673614501953,3.3999993801116943,78.02373504638672,13.800000190734863,268697600,False,False,0.0,False
29.86,164.24999643964233,0,0.09252,38.44,138.4,0.0,0.524,1.0,3,5593.0,-0.0431,0,0,0.0,,,,,0,14.885,1.24,-0.318,0,4.0763,0.0079,0.0167,38.445,-0.022,-0.006,76.89049530029297,3.3999993801116943,78.00016784667969,13.800000190734863,268697600,False,False,0.0,False
29.96,164.3499964396424,0,0.09341,37.71,135.8,0.0,0.522,1.0,3,5421.0,-0.0184,0,0,0.0,,,,,0,14.885,1.216,-0.33,0,4.0797,0.0114,0.014,37.714,0.053,0.083,76.88291931152344,3.3999993801116943,77.96467590332031,13.800000190734863,268697600,False,False,0.0,False
30.06,164.4499964396425,0,0.09428,36.96,133.1,0.0,0.488,1.0,3,5332.0,-0.0261,0,0,0.0,,,,,0,14.885,1.203,-0.966,0,4.0832,0.0172,0.0164,36.964,0.102,0.182,76.875244140625,3.3999993801116943,77.92993927001953,13.800000190734863,268697600,False,False,0.0,False
30.16,164.54999643964257,0,0.09513,36.24,130.5,0.0,0.452,1.0,3,5243.0,-0.0424,0,0,0.0,,,,,0,14.885,1.19,-1.988,0,4.0893,0.0177,0.021,36.239,0.168,0.113,76.86721801757812,3.3999993801116943,77.89629364013672,13.800000190734863,268697600,False,False,0.0,False
30.26,164.64999643964265,0,0.09597,35.6,128.1,0.243,0.22,1.0,3,5283.0,-0.0148,0,0,0.0,,,,,0,14.884,10.942,-2.168,0,4.0971,0.012,0.0228,35.595,0.211,0.051,76.85926818847656,3.3999993801116943,77.8658676147461,13.800000190734863,268697600,False,False,0.0,False
30.37,164.74999643964273,0,0.0968,35.59,128.1,1.0,0.008,1.0,3,5444.0,-0.0067,0,0,0.0,,,,,0,14.883,33.487,-1.454,0,4.1012,0.0068,0.0236,35.589,0.157,-0.027,76.85242462158203,3.3999993801116943,77.86966705322266,13.800000190734863,268697600,False,False,0.0,False
30.47,164.8499964396428,0,0.09763,35.87,129.1,1.0,0.0,1.0,3,5448.0,-0.0213,0,0,0.0,,,,,0,14.882,33.494,-0.955,0,4.103,0.0016,0.0244,35.87,0.083,-0.146,76.84548950195312,3.3999993801116943,77.8787841796875,13.800000190734863,268697600,False,False,0.0,False
30.57,164.96666310630957,0,0.09861,36.19,130.3,1.0,0.0,1.0,3,5525.0,-0.0101,0,0,0.0,,,,,0,14.881,33.65,-0.36,0,4.1046,0.0033,0.0226,36.188,0.05,-0.118,76.83760070800781,3.3999993801116943,77.88920593261719,13.800000190734863,268697600,False,False,0.0,False
30.67,165.06666310630965,0,0.09946,36.48,131.3,0.941,0.029,1.0,3,5552.0,-0.0311,0,0,0.0,,,,,0,14.879,33.491,-0.777,0,4.1063,0.0002,0.025,36.476,0.029,-0.178,76.83106994628906,3.3999993801116943,77.89788818359375,13.800000190734863,268697600,False,False,0.0,False
30.77,165.16666310630973,0,0.10031,36.47,131.3,0.0,0.354,1.0,3,5312.0,-0.0342,0,0,0.0,,,,,0,14.879,1.2,-0.612,0,4.1095,0.0015,0.0253,36.469,0.048,-0.074,76.82379913330078,3.3999993801116943,77.8783950805664,13.800000190734863,268697600,False,False,0.0,False
30.87,165.2666631063098,0,0.10116,35.88,129.2,0.0,0.356,1.0,3,5234.0,-0.0302,0,0,0.0,,,,,0,14.879,1.189,-0.745,0,4.1131,0.0079,0.0222,35.876,0.091,0.064,76.81558227539062,3.3999993801116943,77.84536743164062,13.800000190734863,268697600,False,False,0.0,False
30.97,165.3666631063099,0,0.10199,35.39,127.4,0.241,0.15,1.0,3,5263.0,-0.0194,0,0,0.0,,,,,0,14.879,10.85,-1.025,0,4.117,0.0087,0.0195,35.39,0.119,0.048,76.80754852294922,3.3999993801116943,77.81605529785156,13.800000190734863,268697600,False,False,0.0,False
31.07,165.46666310630997,0,0.10281,35.42,127.5,1.0,0.003,1.0,3,5421.0,-0.0287,0,0,0.0,,,,,0,14.878,33.439,-1.141,0,4.1206,0.0032,0.0186,35.416,0.108,-0.103,76.80062866210938,3.3999993801116943,77.8187026977539,13.800000190734863,268697600,False,False,0.0,False
31.17,165.56666310631005,0,0.10364,35.69,128.5,0.792,0.049,1.0,3,5422.0,-0.0402,0,0,0.0,,,,,0,14.877,31.051,-1.075,0,4.1238,0.0024,0.0198,35.693,0.092,-0.125,76.79364013671875,3.3999993801116943,77.82734680175781,13.800000190734863,268697600,False,False,0.0,False
31.27,165.66666310631012,0,0.10448,35.63,128.3,0.0,0.367,1.0,3,5204.0,-0.029,0,0,0.0,,,,,0,14.876,1.184,-0.917,0,4.1274,0.0058,0.0154,35.63,0.101,-0.033,76.78604888916016,3.3999993801116943,77.80668640136719,13.800000190734863,268697600,False,False,0.0,False
31.38,165.7666631063102,0,0.1053,35.12,126.4,0.355,0.222,1.0,3,5243.0,-0.0323,0,0,0.0,,,,,0,14.876,15.705,-1.343,0,4.131,0.0102,0.0167,35.116,0.113,0.048,76.77766418457031,3.3999993801116943,77.7795639038086,13.800000190734863,268697600,False,False,0.0,False
31.48,165.86666310631028,0,0.10612,35.13,126.5,1.0,0.007,1.0,3,5378.0,-0.0476,0,0,0.0,,,,,0,14.875,33.348,-1.765,0,4.1369,0.0075,0.0187,35.127,0.146,-0.075,76.7707290649414,3.3999993801116943,77.78604888916016,13.800000190734863,268697600,False,False,0.0,False
31.58,165.96666310631036,0,0.10694,35.4,127.5,0.518,0.039,1.0,3,5346.0,-0.0752,0,0,0.0,,,,,0,14.874,22.412,-1.989,0,4.1415,0.0116,0.0176,35.404,0.137,-0.002,76.76356506347656,3.3999993801116943,77.7917709350586,13.800000190734863,268697600,False,False,0.0,False
31.68,166.06666310631044,0,0.10777,35.33,127.2,0.02,0.129,1.0,3,5157.0,-0.0464,0,0,0.0,,,,,0,14.873,1.473,-1.927,0,4.1486,0.0089,0.0109,35.334,0.18,-0.066,76.75580596923828,3.3999993801116943,77.76497650146484,13.800000190734863,268697600,False,False,0.0,False
31.78,166.16666310631052,0,0.10859,35.18,126.7,0.998,0.035,1.0,3,5369.0,-0.0622,0,0,0.0,,,,,0,14.873,33.329,-2.183,0,4.1549,0.009,0.0101,35.184,0.176,-0.004,76.74849700927734,3.3999993801116943,77.75637817382812,13.800000190734863,268697600,False,False,0.0,False
31.88,166.2666631063106,0,0.10942,35.49,127.8,1.0,0.0,1.0,3,5397.0,-0.0481,0,0,0.0,,,,,0,14.871,33.389,-2.184,0,4.1628,0.002,0.0083,35.486,0.209,-0.182,76.74140167236328,3.3999993801116943,77.76580047607422,13.800000190734863,268697600,False,False,0.0,False
31.98,166.36666310631068,0,0.11025,35.71,128.5,0.278,0.076,1.0,3,5347.0,-0.0654,0,0,0.0,,,,,0,14.871,12.426,-1.814,0,4.1679,0.0074,0.0052,35.707,0.186,-0.061,76.73424530029297,3.3999993801116943,77.76383972167969,13.800000190734863,268697600,False,False,0.0,False
32.08,166.48332977297744,0,0.11122,35.49,127.8,0.283,0.135,1.0,3,5238.0,-0.0464,0,0,0.0,,,,,0,14.87,12.656,-2.119,0,4.1756,0.0115,0.0016,35.493,0.224,-0.017,76.72509765625,3.3999993801116943,77.73162078857422,13.800000190734863,268697600,False,False,0.0,False
32.18,166.58332977297752,0,0.11205,35.54,127.9,1.0,0.008,1.0,3,5435.0,-0.04,0,0,0.0,,,,,0,14.869,33.468,-2.235,0,4.1828,0.0097,0.0023,35.535,0.248,-0.102,76.7182388305664,3.3999993801116943,77.73625183105469,13.800000190734863,268697600,False,False,0.0,False
32.29,166.6833297729776,0,0.11288,35.82,129.0,1.0,0.0,1.0,3,5446.0,-0.0532,0,0,0.0,,,,,0,14.868,33.492,-2.47,0,4.1889,0.0077,0.0047,35.823,0.217,-0.133,76.71135711669922,3.3999993801116943,77.7454833984375,13.800000190734863,268697600,False,False,0.0,False
32.39,166.78332977297768,0,0.11372,36.01,129.6,0.243,0.137,1.0,3,5349.0,-0.035,0,0,0.0,,,,,0,14.867,10.915,-2.214,0,4.1945,0.0076,0.0068,36.008,0.193,-0.093,76.70430755615234,3.3999993801116943,77.7425765991211,13.800000190734863,268697600,False,False,0.0,False
32.49,166.88332977297776,0,0.11456,35.77,128.8,0.087,0.11,1.0,3,5149.0,0.011,0,0,0.0,,,,,0,14.867,4.175,-1.142,0,4.1991,0.0073,0.0077,35.774,0.172,-0.031,76.6963882446289,3.3999993801116943,77.71158599853516,13.800000190734863,268697600,False,False,0.0,False
32.59,166.98332977297784,0,0.11539,35.64,128.3,0.499,0.07,1.0,3,5281.0,0.3445,0,0,0.0,,,,,0,14.866,21.612,3.808,0,4.1945,0.0058,0.009,35.637,0.103,-0.041,76.68932342529297,3.3999993801116943,77.69654846191406,13.800000190734863,268697600,False,False,0.0,False
32.69,167.08332977297792,0,0.11622,35.75,128.7,1.0,0.022,1.0,3,5453.0,0.6041,0,0,0.0,,,,,0,14.865,33.506,8.838,0,4.1598,0.0056,0.0105,35.747,-0.474,-0.063,76.68241119384766,3.3999993801116943,77.70246124267578,13.800000190734863,268697600,False,False,0.0,False
32.79,167.183329772978,0,0.11706,35.95,129.4,1.0,0.0,1.0,3,5544.0,0.148,0,0,0.0,,,,,0,14.864,33.689,10.311,0,4.1051,0.0074,0.0088,35.918,-1.432,-0.003,76.67586517333984,3.3999993801116943,77.7115707397461,13.800000190734863,268697600,False,False,0.0,False
32.89,167.28332977297808,0,0.1179,36.21,130.3,1.0,0.0,1.0,3,5542.0,-0.8516,0,0,0.0,,,,,0,14.863,33.685,0.969,0,4.0786,0.0048,0.0021,36.162,-1.798,-0.047,76.66947937011719,3.3999993801116943,77.72053527832031,13.800000190734863,268697600,False,False,0.0,False
32.99,167.38332977297816,0,0.11874,36.44,131.2,1.0,0.0,1.0,3,5570.0,-1.0489,0,0,0.0,,,,,0,14.862,33.739,-9.48,0,4.1451,0.0025,-0.0111,36.444,0.127,-0.121,76.66302490234375,3.3999993801116943,77.7293701171875,13.800000190734863,268697600,False,False,0.0,False
33.09,167.48332977297824,0,0.11959,36.61,131.8,1.0,0.0,1.0,3,5687.0,-0.2409,0,0,0.0,,,,,0,14.86,33.98,-11.284,0,4.2346,0.0075,-0.0166,36.533,2.313,0.027,76.65696716308594,3.3999993801116943,77.7380142211914,13.800000190734863,268697600,False,False,0.0,False
33.19,167.58332977297832,0,0.12045,36.77,132.4,1.0,0.0,1.0,3,5769.0,0.5851,0,0,0.0,,,,,0,14.859,34.143,-10.519,0,4.3023,0.0068,-0.0197,36.584,3.737,0.041,76.65148162841797,3.3999993801116943,77.74649810791016,13.800000190734863,268697600,False,False,0.0,False
33.3,167.6833297729784,0,0.12131,37.01,133.2,1.0,0.0,1.0,3,5714.0,0.691,0,0,0.0,,,,,0,14.858,34.035,-9.063,0,4.3092,0.002,-0.0213,36.881,3.032,-0.023,76.64592742919922,3.3999993801116943,77.75489807128906,13.800000190734863,268697600,False,False,0.0,False
33.4,167.78332977297848,0,0.12218,37.28,134.2,1.0,0.0,1.0,3,5673.0,0.0151,0,0,0.0,,,,,0,14.856,33.951,-4.224,0,4.2646,0.0009,-0.0176,37.274,0.679,-0.057,76.63997650146484,3.3999993801116943,77.76322174072266,13.800000190734863,268697600,False,False,0.0,False
33.5,167.88332977297856,0,0.12305,37.54,135.1,1.0,0.0,1.0,3,5731.0,-0.4082,0,0,0.0,,,,,0,14.855,34.068,-3.357,0,4.249,0.0001,-0.0152,37.535,-0.23,-0.111,76.63409423828125,3.3999993801116943,77.7713851928711,13.800000190734863,268697600,False,False,0.0,False
33.6,167.98332977297864,0,0.12393,37.79,136.1,1.0,0.0,1.0,3,5762.0,0.1422,0,0,0.0,,,,,0,14.854,34.13,-0.77,0,4.274,-0.0003,-0.014,37.793,0.417,-0.122,76.62736511230469,3.3999993801116943,77.78071594238281,13.800000190734863,268697600,False,False,0.0,False
33.7,168.0999964396454,0,0.12496,38.08,137.1,1.0,0.0,1.0,3,5802.0,0.8174,0,0,0.0,,,,,0,14.852,34.207,6.771,0,4.2531,0.0001,-0.0064,38.081,0.048,-0.145,76.62178802490234,3.3999993801116943,77.78852844238281,13.800000190734863,268697600,False,False,0.0,False
33.8,168.19999643964547,0,0.12585,38.27,137.8,1.0,0.0,1.0,3,5896.0,0.3101,0,0,0.0,,,,,0,14.851,34.31,10.17,0,4.189,0.0049,-0.0037,38.239,-1.465,-0.024,76.61650848388672,3.3999993801116943,77.79612731933594,13.800000190734863,268697600,False,False,0.0,False
33.9,168.29999643964555,0,0.12674,38.47,138.5,1.0,0.0,1.0,3,5941.0,-0.589,0,0,0.0,,,,,0,14.85,34.357,6.006,0,4.1373,0.0061,-0.0075,38.384,-2.603,-0.004,76.61161804199219,3.3999993801116943,77.80345153808594,13.800000190734863,268697600,False,False,0.0,False
34.0,168.41666310631228,0,0.12764,38.71,139.4,1.0,0.0,1.0,3,5938.0,-0.9316,0,0,0.0,,,,,0,14.849,34.354,-2.844,0,4.1617,0.0069,-0.0171,38.687,-1.453,-0.022,76.60672760009766,3.3999993801116943,77.81066131591797,13.800000190734863,268697600,False,False,0.0,False
34.1,168.51666310631236,0,0.12855,38.94,140.2,1.0,0.0,1.0,3,5976.0,-0.4065,0,0,0.0,,,,,0,14.847,34.39,-9.243,0,4.2457,0.0054,-0.0257,38.92,1.17,-0.076,76.60176086425781,3.3999993801116943,77.8177261352539,13.800000190734863,268697600,False,False,0.0,False
34.2,168.61666310631244,0,0.12946,39.11,140.8,1.0,0.0,1.0,3,6090.0,0.3864,0,0,0.0,,,,,0,14.846,34.492,-6.641,0,4.312,0.0099,-0.0247,38.999,2.954,0.018,76.59733581542969,3.3999993801116943,77.82447052001953,13.800000190734863,268697600,False,False,0.0,False
34.31,168.71666310631252,0,0.13038,39.32,141.5,1.0,0.0,1.0,3,6140.0,0.6826,0,0,0.0,,,,,0,14.845,34.532,-5.431,0,4.3293,0.0144,-0.0215,39.2,3.041,0.04,76.59335327148438,3.3999993801116943,77.83094024658203,13.800000190734863,268697600,False,False,0.0,False
34.41,168.8166631063126,0,0.1313,39.6,142.6,1.0,0.0,1.0,3,6056.0,0.2033,0,0,0.0,,,,,0,14.844,34.463,-5.025,0,4.2971,0.0133,-0.0157,39.584,1.238,-0.08,76.58914184570312,3.3999993801116943,77.83733367919922,13.800000190734863,268697600,False,False,0.0,False
34.51,168.91666310631268,0,0.13223,39.86,143.5,1.0,0.0,1.0,3,6063.0,-0.4142,0,0,0.0,,,,,0,14.842,34.47,-3.472,0,4.2717,0.0139,-0.0045,39.864,-0.14,-0.09,76.58456420898438,3.3999993801116943,77.84371185302734,13.800000190734863,268697600,False,False,0.0,False
34.61,169.01666310631276,0,0.13316,40.09,144.3,1.0,0.0,1.0,3,6119.0,-0.6199,0,0,0.0,,,,,0,14.841,34.516,-6.521,0,4.297,0.0165,-0.0009,40.088,0.346,-0.081,76.5802993774414,3.3999993801116943,77.84980773925781,13.800000190734863,268697600,False,False,0.0,False
34.71,169.11666310631284,0,0.1341,40.28,145.0,1.0,0.0,1.0,3,6192.0,-0.2847,0,0,0.0,,,,,0,14.84,34.571,-9.73,0,4.3503,0.0191,0.0012,40.25,1.598,-0.052,76.57637023925781,3.3999993801116943,77.85563659667969,13.800000190734863,268697600,False,False,0.0,False
34.81,169.21666310631292,0,0.13504,40.48,145.7,1.0,0.0,1.0,3,6252.0,0.4271,0,0,0.0,,,,,0,14.838,34.569,-6.654,0,4.3926,0.0224,0.0084,40.405,2.453,0.04,76.57266998291016,3.3999993801116943,77.8612289428711,13.800000190734863,268697600,False,False,0.0,False
34.91,169.316663106313,0,0.13599,40.74,146.7,1.0,0.0,1.0,3,6196.0,0.6043,0,0,0.0,,,,,0,14.837,34.574,-1.727,0,4.3798,0.0157,0.017,40.712,1.466,-0.134,76.56896209716797,3.3999993801116943,77.86666870117188,13.800000190734863,268697600,False,False,0.0,False
35.01,169.41666310631308,0,0.13694,40.95,147.4,1.0,0.0,1.0,3,6313.0,-0.052,0,0,0.0,,,,,0,14.836,34.557,1.766,0,4.3221,0.0233,0.0253,40.939,-0.778,0.025,76.56525421142578,3.3999993801116943,77.87194061279297,13.800000190734863,268697600,False,False,0.0,False
35.11,169.51666310631316,0,0.1379,41.22,148.4,1.0,0.0,1.0,3,6272.0,-0.6754,0,0,0.0,,,,,0,14.835,34.567,1.165,0,4.3023,0.0194,0.021,41.191,-1.42,-0.204,76.56202697753906,3.3999993801116943,77.87677764892578,13.800000190734863,268697600,False,False,0.0,False
35.21,169.61666310631324,0,0.13887,41.42,149.1,1.0,0.0,1.0,3,6360.0,-0.7468,0,0,0.0,,,,,0,14.833,34.545,-6.022,0,4.3519,0.0295,0.017,41.415,0.295,-0.02,76.55870056152344,3.3999993801116943,77.88150787353516,13.800000190734863,268697600,False,False,0.0,False
35.32,169.73332977298,0,0.14001,41.61,149.8,1.0,0.0,1.0,3,6488.0,-0.2126,0,0,0.0,,,,,0,14.832,34.472,-9.75,0,4.4355,0.0385,0.0105,41.518,2.798,0.041,76.55570220947266,3.3999993801116943,77.88628387451172,13.800000190734863,268697600,False,False,0.0,False
35.42,169.83332977298008,0,0.14098,41.76,150.3,1.0,0.0,1.0,3,6541.0,0.4628,0,0,0.0,,,,,0,14.831,34.432,-11.561,0,4.4974,0.0403,0.0106,41.541,4.276,0.037,76.55358123779297,3.3999993801116943,77.88992309570312,13.800000190734863,268697600,False,False,0.0,False
35.52,169.93332977298016,0,0.14196,41.95,151.0,1.0,0.0,1.0,3,6496.0,0.8827,0,0,0.0,,,,,0,14.829,34.467,-6.731,0,4.5169,0.0408,0.0174,41.747,4.077,0.062,76.5512924194336,3.3999993801116943,77.89358520507812,13.800000190734863,268697600,False,False,0.0,False
35.62,170.03332977298024,0,0.14295,42.18,151.9,1.0,0.0,1.0,3,6486.0,0.4257,0,0,0.0,,,,,0,14.828,34.476,-4.193,0,4.4746,0.04,0.0255,42.146,1.765,-0.041,76.5490493774414,3.3999993801116943,77.89710235595703,13.800000190734863,268697600,False,False,0.0,False
35.72,170.13332977298032,0,0.14393,42.45,152.8,1.0,0.0,1.0,3,6474.0,-0.2284,0,0,0.0,,,,,0,14.827,34.485,-0.06,0,4.4253,0.0383,0.0307,42.448,-0.526,-0.098,76.54637908935547,3.3999993801116943,77.90069580078125,13.800000190734863,268697600,False,False,0.0,False
35.82,170.2333297729804,0,0.14493,42.68,153.7,1.0,0.0,1.0,3,6519.0,-0.4736,0,0,0.0,,,,,0,14.825,34.452,-2.899,0,4.4255,0.0442,0.0258,42.68,-0.573,-0.036,76.54388427734375,3.3999993801116943,77.90399169921875,13.800000190734863,268697600,False,False,0.0,False
35.92,170.33332977298048,0,0.14592,42.92,154.5,1.0,0.0,1.0,3,6565.0,-0.3874,0,0,0.0,,,,,0,14.824,34.415,-6.537,0,4.4659,0.0471,0.0168,42.91,0.696,-0.08,76.54179382324219,3.3999993801116943,77.9068374633789,13.800000190734863,268697600,False,False,0.0,False
36.02,170.43332977298056,0,0.14693,43.12,155.2,1.0,0.0,1.0,3,6622.0,-0.1523,0,0,0.0,,,,,0,14.823,34.36,-10.144,0,4.5147,0.0482,0.0087,43.075,1.922,-0.057,76.53987884521484,3.3999993801116943,77.90940856933594,13.800000190734863,268697600,False,False,0.0,False
36.12,170.53332977298064,0,0.14793,43.31,155.9,1.0,0.0,1.0,3,6640.0,0.3531,0,0,0.0,,,,,0,14.822,34.34,-7.822,0,4.5499,0.0457,0.0055,43.245,2.464,-0.064,76.53812408447266,3.3999993801116943,77.9117202758789,13.800000190734863,268697600,False,False,0.0,False
36.22,170.63332977298072,0,0.14895,43.55,156.8,1.0,0.0,1.0,3,6639.0,0.4106,0,0,0.0,,,,,0,14.82,34.342,-2.112,0,4.5358,0.0453,0.0105,43.524,1.361,-0.074,76.53636932373047,3.3999993801116943,77.91389465332031,13.800000190734863,268697600,False,False,0.0,False
36.33,170.7333297729808,0,0.14996,43.79,157.6,1.0,0.0,1.0,3,6659.0,-0.0172,0,0,0.0,,,,,0,14.819,34.319,1.931,0,4.4953,0.0424,0.018,43.788,-0.417,-0.155,76.53466796875,3.3999993801116943,77.91584777832031,13.800000190734863,268697600,False,False,0.0,False
36.43,170.83332977298087,0,0.15098,44.02,158.5,1.0,0.0,1.0,3,6685.0,-0.1693,0,0,0.0,,,,,0,14.818,34.288,1.953,0,4.4829,0.0408,0.0194,44.015,-0.741,-0.164,76.53302001953125,3.3999993801116943,77.91758728027344,13.800000190734863,268697600,False,False,0.0,False
36.53,170.93332977298095,0,0.15201,44.24,159.3,0.519,0.087,1.0,3,6659.0,-0.0759,0,0,0.0,,,,,0,14.817,22.326,0.144,0,4.4943,0.0408,0.0166,44.243,-0.156,-0.175,76.53148651123047,3.3999993801116943,77.91524505615234,13.800000190734863,268697600,False,False,0.0,False
36.63,171.03332977298103,0,0.15304,43.98,158.3,0.0,0.572,1.0,3,6324.0,0.0335,0,0,0.0,,,,,0,14.817,1.333,-0.488,0,4.5051,0.0543,0.0105,43.975,0.293,0.132,76.52831268310547,3.3999993801116943,77.87230682373047,13.800000190734863,268697600,False,False,0.0,False
36.73,171.1333297729811,0,0.15406,43.16,155.4,0.0,0.652,1.0,3,6008.0,0.0366,0,0,0.0,,,,,0,14.816,1.295,-0.808,0,4.5078,0.0593,0.0073,43.159,0.335,0.147,76.52328491210938,3.3999993801116943,77.82966613769531,13.800000190734863,268697600,False,False,0.0,False
36.83,171.2333297729812,0,0.15505,42.27,152.2,0.0,0.661,1.0,3,5891.0,0.0321,0,0,0.0,,,,,0,14.816,1.28,-0.404,0,4.5064,0.0682,0.0087,42.265,0.212,0.265,76.51771545410156,3.3999993801116943,77.78837585449219,13.800000190734863,268697600,False,False,0.0,False
36.93,171.33332977298127,0,0.15603,41.31,148.7,0.0,0.662,1.0,3,5748.0,0.029,0,0,0.0,,,,,0,14.816,1.261,-0.052,0,4.5042,0.073,0.0116,41.307,0.091,0.235,76.51111602783203,3.3999993801116943,77.74903106689453,13.800000190734863,268697600,False,False,0.0,False
37.03,171.44999643964803,0,0.15713,40.02,144.1,0.0,0.675,0,2,5628.0,0.0247,0,0,0.0,,,,,0,14.816,1.245,0.853,0,4.5006,0.0681,0.0117,40.021,-0.04,0.158,76.50312042236328,3.3999993801116943,77.70459747314453,13.800000190734863,268697600,False,False,0.0,False
37.13,171.5499964396481,0,0.15805,39.04,140.5,0.0,0.686,0.389,2,5518.0,0.0201,0,0,0.0,,,,,0,14.816,1.23,1.503,0,4.4953,0.062,0.0114,39.04,-0.137,0.192,76.49544525146484,3.3999993801116943,77.66850280761719,13.800000190734863,268697600,False,False,0.0,False
37.24,171.6499964396482,0,0.15894,37.83,136.2,0.0,0.688,0.667,0,6379.0,0.0165,0,0,0.0,,,,,0,14.816,1.339,2.247,0,4.4888,0.0593,0.0106,37.824,-0.243,0.281,76.49335479736328,3.3999993801116943,77.6271743774414,13.800000190734863,268697600,False,False,0.0,False
37.34,171.74999643964827,0,0.15981,36.65,131.9,0.0,0.675,0,1,6336.0,0.0268,0,0,0.0,,,,,0,14.816,1.334,2.66,0,4.4801,0.0562,0.0114,36.649,-0.345,0.309,76.49202728271484,3.3999993801116943,77.58606719970703,13.800000190734863,268697600,False,False,0.0,False
37.44,171.84999643964835,0,0.16065,35.55,128.0,0.0,0.651,0.833,1,7321.0,0.028,0,0,0.0,,,,,0,14.816,1.433,2.837,0,4.469,0.0549,0.0115,35.543,-0.465,0.319,76.49247741699219,3.3999993801116943,77.54438018798828,13.800000190734863,268697600,False,False,0.0,False
37.54,171.94999643964843,0,0.16146,34.35,123.7,0.0,0.608,1.0,1,7377.0,-0.0584,0,0,0.0,,,,,0,14.816,1.438,4.116,0,4.4529,0.0497,0.0107,34.342,-0.67,0.282,76.49818420410156,3.3999993801116943,77.49916076660156,13.800000190734863,268697600,False,False,0.0,False
37.64,172.0499964396485,0,0.16225,33.37,120.1,0.0,0.454,1.0,1,7377.0,-0.0939,0,0,0.0,,,,,0,14.816,1.438,3.489,0,4.4456,0.0435,0.0092,33.367,-0.562,0.231,76.5048828125,3.3999993801116943,77.45416259765625,13.800000190734863,268697600,False,False,0.0,False
37.74,172.1499964396486,0,0.16303,32.75,117.9,0.0,0.118,1.0,1,7323.0,0.3089,0,0,0.0,,,,,0,14.816,1.433,5.908,0,4.4427,0.0411,0.0086,32.751,-0.226,0.178,76.51144409179688,3.3999993801116943,77.41004943847656,13.800000190734863,268697600,False,False,0.0,False
37.84,172.24999643964867,0,0.16379,32.5,117.0,0.481,-0.0,1.0,1,7392.0,0.7748,0,0,0.0,,,,,0,14.816,11.671,8.467,0,4.4118,0.0456,0.0081,32.494,-0.524,0.122,76.5181884765625,3.3999993801116943,77.37303924560547,13.800000190734863,268697600,False,False,0.0,False
37.94,172.34999643964875,0,0.16455,32.38,116.6,1.0,0.0,1.0,1,7396.0,0.7446,0,0,0.0,,,,,0,14.815,19.079,12.12,0,4.3511,0.0496,0.0106,32.355,-1.396,0.103,76.52535247802734,3.3999993801116943,77.35296630859375,13.800000190734863,268697600,False,False,0.0,False
38.04,172.44999643964883,0,0.16531,32.25,116.1,1.0,0.0,1.0,1,7396.0,-0.0338,0,0,0.0,,,,,0,14.814,19.078,13.286,0,4.2778,0.049,0.0117,32.163,-2.376,0.116,76.53258514404297,3.3999993801116943,77.3343734741211,13.800000190734863,268697600,False,False,0.0,False
38.14,172.5499964396489,0,0.16607,32.23,116.0,1.0,0.0,1.0,1,7384.0,-0.7669,0,0,0.0,,,,,0,14.814,19.454,7.462,0,4.2397,0.0468,0.0039,32.129,-2.592,0.073,76.5397720336914,3.3999993801116943,77.31840515136719,13.800000190734863,268697600,False,False,0.0,False
38.25,172.649996439649,0,0.16684,32.29,116.3,1.0,0.0,1.0,1,7384.0,-0.4142,0,0,0.0,,,,,0,14.813,19.473,1.904,0,4.2794,0.0462,-0.0069,32.281,-0.871,0.019,76.54695129394531,3.3999993801116943,77.30254364013672,13.800000190734863,268697600,False,False,0.0,False
38.35,172.74999643964907,0,0.1676,32.36,116.5,1.0,0.0,1.0,1,7386.0,0.3903,0,0,0.0,,,,,0,14.812,19.398,1.84,0,4.3166,0.0454,-0.0152,32.355,0.462,-0.03,76.55409240722656,3.3999993801116943,77.28652954101562,13.800000190734863,268697600,False,False,0.0,False
38.45,172.86666310631583,0,0.1685,32.37,116.5,1.0,0.0,1.0,1,7388.0,0.8835,0,0,0.0,,,,,0,14.811,19.334,11.458,0,4.2762,0.0444,-0.0112,32.371,-0.097,-0.045,76.56243896484375,3.3999993801116943,77.2677001953125,13.800000190734863,268697600,False,False,0.0,False
38.55,172.94999643964923,0,0.16915,32.32,116.4,1.0,0.0,1.0,1,7386.0,0.9086,0,0,0.0,,,,,0,14.811,19.413,14.31,0,4.2123,0.045,-0.0056,32.306,-1.065,0.006,76.56838989257812,3.3999993801116943,77.25440979003906,13.800000190734863,268697600,False,False,0.0,False
38.65,173.06666310631599,0,0.17004,32.22,116.0,0.686,0.0,1.0,1,7386.0,0.2756,0,0,0.0,,,,,0,14.81,16.167,13.861,0,4.1152,0.0508,-0.0029,32.123,-2.52,0.139,76.57673645019531,3.3999993801116943,77.23384094238281,13.800000190734863,268697600,False,False,0.0,False
38.75,173.16666310631607,0,0.17081,32.16,115.8,0.308,0.0,1.0,1,7339.0,-0.4954,0,0,0.0,,,,,0,14.81,8.176,11.125,0,4.0458,0.0529,-0.0043,31.973,-3.467,0.12,76.58380126953125,3.3999993801116943,77.20541381835938,13.800000190734863,268697600,False,False,0.0,False
38.85,173.26666310631614,0,0.17157,32.07,115.5,0.032,0.0,1.0,1,7134.0,-0.4164,0,0,0.0,,,,,0,14.809,1.843,11.165,0,4.0204,0.0567,-0.0078,31.917,-3.124,0.139,76.5898208618164,3.3999993801116943,77.16730499267578,13.800000190734863,268697600,False,False,0.0,False
